eventid,iyear,imonth,iday,country_txt,region_txt,provstate,city,latitude,longitude,nkill
2.02E+11,2017,7,15,Australia,Australasia & Oceania,New South Wales,Sydney,-33.934491,151.179691,0
2.02E+11,2017,7,18,Papua New Guinea,Australasia & Oceania,New Ireland,Kavieng,-2.578117,150.808608,0
2.02E+11,2017,4,7,Australia,Australasia & Oceania,New South Wales,Queanbeyan,-35.349304,149.244385,1
2.02E+11,2017,7,18,Papua New Guinea,Australasia & Oceania,Morobe,Finschhafen,-6.598434,147.853302,0
2.02E+11,2017,7,18,Papua New Guinea,Australasia & Oceania,Morobe,Finschhafen,-6.598434,147.853302,0
2.02E+11,2017,7,18,Papua New Guinea,Australasia & Oceania,Morobe,Finschhafen,-6.598434,147.853302,0
2.02E+11,2017,7,18,Papua New Guinea,Australasia & Oceania,Morobe,Gagidu,-6.604156,147.852361,0
2.02E+11,2017,7,26,Papua New Guinea,Australasia & Oceania,Central,Port Moresby,-9.441944,147.218889,0
2.02E+11,2017,6,5,Australia,Australasia & Oceania,Victoria,Brighton,-37.906633,145.007628,2
2.02E+11,2017,12,21,Australia,Australasia & Oceania,Victoria,Melbourne,-37.8182,144.965,1
2.02E+11,2017,7,16,Papua New Guinea,Australasia & Oceania,Jiwaka,Sipil,-5.782101,144.642348,0
2.02E+11,2017,7,8,Papua New Guinea,Australasia & Oceania,Western Highlands,Koibuga,-6.066667,144.25,0
2.02E+11,2017,12,15,Indonesia,Southeast Asia,Papua,Unknown,-4.693395,139.364375,1
2.02E+11,2017,11,12,Indonesia,Southeast Asia,Papua,Mimika district,-4.457827,137.122554,0
2.02E+11,2017,11,15,Indonesia,Southeast Asia,Papua,Mimika district,-4.457827,137.122554,1
2.02E+11,2017,10,23,Indonesia,Southeast Asia,Papua,Tembagapura,-4.000079,137.113416,0
2.02E+11,2017,10,21,Indonesia,Southeast Asia,Papua,Tembagapura,-4.143584,137.090491,0
2.02E+11,2017,10,29,Indonesia,Southeast Asia,Papua,Tembagapura,-4.143584,137.090491,0
2.02E+11,2017,11,7,Indonesia,Southeast Asia,Papua,Tembagapura,-4.141596,137.09047,-99
2.02E+11,2017,11,5,Indonesia,Southeast Asia,Papua,Tembagapura,-4.333193,136.999945,0
2.02E+11,2017,11,14,Indonesia,Southeast Asia,Papua,Tembagapura,-4.333184,136.999194,0
2.02E+11,2017,11,7,Indonesia,Southeast Asia,Papua,Kimbely,-4.371137,136.962266,-99
2.02E+11,2017,4,21,Russia,Eastern Europe,Khabarovsk,Khabarovsk,48.502731,135.06626,3
2.02E+11,2017,4,12,Philippines,Southeast Asia,Davao Oriental,Kinablangan,7.695505,126.549117,0
2.02E+11,2017,2,11,Philippines,Southeast Asia,Davao Oriental,San Jose,7.317427,126.547417,0
2.02E+11,2017,2,1,Philippines,Southeast Asia,Davao Oriental,Lambog,7.261581,126.466013,3
2.02E+11,2017,4,8,Philippines,Southeast Asia,Davao Oriental,San Rafael,7.76931,126.453049,0
2.02E+11,2017,12,30,Philippines,Southeast Asia,Davao Oriental,Tarragona,7.042777,126.449221,-99
2.02E+11,2017,4,23,Philippines,Southeast Asia,Davao Oriental,Aliwagwag,7.744567,126.397443,2
2.02E+11,2017,7,26,Philippines,Southeast Asia,Surigao del Sur,Marihatag,8.802481,126.300943,0
2.02E+11,2017,10,24,Philippines,Southeast Asia,Surigao del Sur,Coleto,8.228173,126.271709,1
2.02E+11,2017,8,10,Philippines,Southeast Asia,Surigao del Sur,Santo Nino,8.766104,126.238398,0
2.02E+11,2017,5,6,Philippines,Southeast Asia,Davao Oriental,Cabuaya,6.953055,126.21611,0
2.02E+11,2017,7,11,Philippines,Southeast Asia,Compostela Valley,Panansalan,7.709449,126.197976,0
2.02E+11,2017,5,6,Philippines,Southeast Asia,Davao Oriental,Macambol,6.833577,126.195725,0
2.02E+11,2017,2,14,Philippines,Southeast Asia,Davao Oriental,Lupon,7.106,126.176643,0
2.02E+11,2017,7,18,Philippines,Southeast Asia,Surigao del Sur,Lubcon,9.233334,126.166664,0
2.02E+11,2017,12,23,Philippines,Southeast Asia,Compostela Valley,Las Arenas,7.239798,126.16165,0
2.02E+11,2017,5,17,Philippines,Southeast Asia,Surigao del Sur,Purok Lansones,9.094576,126.16043,0
2.02E+11,2017,2,5,Philippines,Southeast Asia,Compostela Valley,Araibo,7.237173,126.160289,0
2.02E+11,2017,3,27,Philippines,Southeast Asia,Surigao del Sur,Santa Fe,8.458153,126.157312,0
2.02E+11,2017,2,22,Philippines,Southeast Asia,Compostela Valley,Tigbao,7.260029,126.126697,0
2.02E+11,2017,3,25,Philippines,Southeast Asia,Compostela Valley,Maragusan,7.316422,126.125427,0
2.02E+11,2017,7,18,Philippines,Southeast Asia,Surigao del Sur,Tago district,8.964295,126.11108,0
2.02E+11,2017,6,22,Philippines,Southeast Asia,Surigao del Norte,San Isidro,9.93694,126.08861,0
2.02E+11,2017,1,30,Philippines,Southeast Asia,Compostela Valley,Union,7.807113,126.083894,0
2.02E+11,2017,6,9,Philippines,Southeast Asia,Davao Oriental,Tagugpo,7.011302,126.077368,0
2.02E+11,2017,10,25,Philippines,Southeast Asia,Surigao del Sur,Banahao,8.66455,126.063505,0
2.02E+11,2017,2,5,Philippines,Southeast Asia,Agusan del Sur,Pangyan,8.04532,126.06184,-99
2.02E+11,2017,1,31,Philippines,Southeast Asia,Agusan del Sur,Unknown,8.046389,126.061538,0
2.02E+11,2017,11,6,Philippines,Southeast Asia,Surigao del Sur,San Isidro,8.683174,126.06148,3
2.02E+11,2017,9,21,Philippines,Southeast Asia,Agusan del Sur,Basa,8.070379,126.060816,0
2.02E+11,2017,9,28,Philippines,Southeast Asia,Surigao del Sur,Libas Sud,8.868648,126.050244,-99
2.02E+11,2017,7,30,Philippines,Southeast Asia,Agusan del Sur,Imelda,8.121913,126.047912,0
2.02E+11,2017,9,28,Philippines,Southeast Asia,Surigao del Sur,Libas Sud,8.866664,126.036107,-99
2.02E+11,2017,7,8,Philippines,Southeast Asia,Surigao del Sur,San Miguel district,8.879689,126.022192,0
2.02E+11,2017,5,13,Philippines,Southeast Asia,Agusan del Sur,Bayugan 3,8.313322,126.009354,0
2.02E+11,2017,2,28,Philippines,Southeast Asia,Agusan del Sur,Rosario,8.381583,126.002471,0
2.02E+11,2017,12,27,Philippines,Southeast Asia,Compostela Valley,Nuevo Iloco,7.519444,125.971667,0
2.02E+11,2017,12,27,Philippines,Southeast Asia,Compostela Valley,San Jose,7.69125,125.964221,1
2.02E+11,2017,12,28,Philippines,Southeast Asia,Compostela Valley,Tubaon,7.49596,125.964158,0
2.02E+11,2017,12,12,Philippines,Southeast Asia,Surigao del Sur,Gacub,9.295934,125.960453,0
2.02E+11,2017,12,12,Philippines,Southeast Asia,Surigao del Sur,Gacub,9.295934,125.960453,0
2.02E+11,2017,2,8,Philippines,Southeast Asia,Compostela Valley,Malamodao,7.37,125.953889,-99
2.02E+11,2017,6,13,Philippines,Southeast Asia,Compostela Valley,Unknown,7.6,125.95,0
2.02E+11,2017,8,14,Philippines,Southeast Asia,Compostela Valley,Poblacion,7.512998,125.931549,1
2.02E+11,2017,12,26,Philippines,Southeast Asia,Compostela Valley,Tuboan,7.138494,125.931399,0
2.02E+11,2017,4,4,Philippines,Southeast Asia,Compostela Valley,Kidawa,7.938909,125.915708,0
2.02E+11,2017,7,7,Philippines,Southeast Asia,Surigao del Sur,Bitaugan,9.05,125.9,0
2.02E+11,2017,9,7,Philippines,Southeast Asia,Surigao del Sur,Bitaugan,9.05,125.9,1
2.02E+11,2017,10,10,Philippines,Southeast Asia,Surigao del Sur,Bitaugan,9.051115,125.899608,0
2.02E+11,2017,2,19,Philippines,Southeast Asia,Compostela Valley,Elizalde,7.357986,125.857563,0
2.02E+11,2017,3,11,Philippines,Southeast Asia,Compostela Valley,Cabuyoan,7.310036,125.850589,0
2.02E+11,2017,3,25,Philippines,Southeast Asia,Compostela Valley,L.S. Sarmiento,7.927639,125.822074,2
2.02E+11,2017,6,18,Philippines,Southeast Asia,Compostela Valley,Kidawa,7.83,125.82,0
2.02E+11,2017,7,3,Philippines,Southeast Asia,Davao del Norte,Magugpo North,7.466835,125.819815,1
2.02E+11,2017,3,21,Philippines,Southeast Asia,Agusan del Sur,Comota,8.338611,125.796111,1
2.02E+11,2017,5,16,Philippines,Southeast Asia,Agusan del Sur,Tabon-tabon,8.961028,125.759476,1
2.02E+11,2017,12,25,Philippines,Southeast Asia,Compostela Valley,Melale,7.921958,125.746148,-99
2.02E+11,2017,7,27,Philippines,Southeast Asia,Agusan del Sur,Del Rio,8.857933,125.731428,1
2.02E+11,2017,7,18,Philippines,Southeast Asia,Agusan del Norte,Anticala,9.021072,125.686072,1
2.02E+11,2017,8,9,Philippines,Southeast Asia,Davao del Norte,Panabo City,7.318034,125.6773,1
2.02E+11,2017,8,21,Philippines,Southeast Asia,Agusan del Norte,Mahaba,9.099348,125.667894,0
2.02E+11,2017,4,29,Philippines,Southeast Asia,Davao del Sur,Bunawan,7.224729,125.640863,0
2.02E+11,2017,11,14,Philippines,Southeast Asia,Agusan del Norte,Santiago district,9.241662,125.631419,0
2.02E+11,2017,6,23,Philippines,Southeast Asia,Davao del Norte,Malitbong,7.333482,125.625189,4
2.02E+11,2017,9,23,Philippines,Southeast Asia,Surigao del Norte,Payapag,9.549522,125.620716,0
2.02E+11,2017,11,14,Philippines,Southeast Asia,Agusan del Norte,Little Baguio,9.418651,125.620689,0
2.02E+11,2017,1,30,Philippines,Southeast Asia,Agusan del Norte,Hinimbangan,9.420658,125.620484,0
2.02E+11,2017,5,10,Philippines,Southeast Asia,Agusan del Sur,La Paz district,8.261139,125.609547,1
2.02E+11,2017,2,16,Philippines,Southeast Asia,Davao del Sur,Davao City,7.083241,125.600998,4
2.02E+11,2017,4,29,Philippines,Southeast Asia,Davao del Sur,Tigatto,7.123938,125.598768,1
2.02E+11,2017,1,29,Philippines,Southeast Asia,Surigao del Norte,Budlingin,9.469021,125.597222,0
2.02E+11,2017,3,8,Philippines,Southeast Asia,Surigao del Norte,Budlingin,9.469599,125.5972,1
2.02E+11,2017,1,30,Philippines,Southeast Asia,Agusan del Norte,Mahayahay,9.445284,125.584089,0
2.02E+11,2017,11,3,Philippines,Southeast Asia,Agusan del Norte,San Mateo,8.793432,125.579464,0
2.02E+11,2017,1,30,Philippines,Southeast Asia,Agusan del Norte,San Isidro,9.452928,125.574473,0
2.02E+11,2017,4,29,Philippines,Southeast Asia,Davao del Sur,Mandug,7.163122,125.574229,0
2.02E+11,2017,3,15,Philippines,Southeast Asia,Agusan del Norte,Hinimbangan,9.448709,125.57143,0
2.02E+11,2017,3,15,Philippines,Southeast Asia,Agusan del Norte,Hinimbangan,9.448709,125.57143,0
2.02E+11,2017,3,15,Philippines,Southeast Asia,Agusan del Norte,Hinimbangan,9.448709,125.57143,0
2.02E+11,2017,11,13,Philippines,Southeast Asia,Surigao del Norte,Bad-as,9.637574,125.571258,0
2.02E+11,2017,6,18,Philippines,Southeast Asia,Davao Occidental,Marabatuan,5.904939,125.567551,0
2.02E+11,2017,2,11,Philippines,Southeast Asia,Agusan del Norte,San Isidro,9.230375,125.565639,3
2.02E+11,2017,9,5,Philippines,Southeast Asia,Agusan del Norte,Cabadbaran,9.139722,125.559722,1
2.02E+11,2017,11,14,Philippines,Southeast Asia,Agusan del Norte,Cuyago,9.34528,125.552905,0
2.02E+11,2017,11,13,Philippines,Southeast Asia,Davao del Sur,New Valencia,7.18599,125.54937,1
2.02E+11,2017,8,12,Philippines,Southeast Asia,Eastern Samar,Calutan,11.26477,125.535923,1
2.02E+11,2017,12,17,Philippines,Southeast Asia,Davao del Norte,Gupitan,7.902708,125.522001,1
2.02E+11,2017,6,24,Philippines,Southeast Asia,Agusan del Norte,Cuyago,9.34,125.52,0
2.02E+11,2017,9,6,Philippines,Southeast Asia,Surigao del Norte,Mapawa,9.735495,125.519264,0
2.02E+11,2017,9,10,Philippines,Southeast Asia,Surigao del Norte,Mapawa,9.735518,125.519222,1
2.02E+11,2017,4,29,Philippines,Southeast Asia,Davao del Sur,Pangyan,7.185168,125.516468,2
2.02E+11,2017,10,21,Philippines,Southeast Asia,Agusan del Norte,Bonbon,8.917107,125.507236,0
2.02E+11,2017,12,10,Philippines,Southeast Asia,Surigao del Norte,Trinidad,9.69423,125.504891,0
2.02E+11,2017,12,10,Philippines,Southeast Asia,Surigao del Norte,Trinidad,9.71623,125.504322,-99
2.02E+11,2017,12,10,Philippines,Southeast Asia,Surigao del Norte,Anomar,9.680242,125.503993,-99
2.02E+11,2017,11,13,Philippines,Southeast Asia,Surigao del Norte,Trinidad,9.710856,125.502383,0
2.02E+11,2017,2,16,Philippines,Southeast Asia,Davao del Sur,Paquibato,7.369717,125.495898,1
2.02E+11,2017,12,3,Philippines,Southeast Asia,Davao del Sur,Toril,7.009218,125.494197,3
2.02E+11,2017,7,18,Philippines,Southeast Asia,Surigao del Norte,Surigao City,9.78472,125.489693,0
2.02E+11,2017,3,23,Philippines,Southeast Asia,Agusan del Sur,Bunucayan,8.068792,125.488951,3
2.02E+11,2017,1,30,Philippines,Southeast Asia,Surigao del Norte,Mat-i,9.717225,125.47665,1
2.02E+11,2017,12,10,Philippines,Southeast Asia,Davao del Sur,Calinan district,7.234865,125.456246,1
2.02E+11,2017,6,8,Philippines,Southeast Asia,Eastern Samar,Biga,11.110724,125.445758,-99
2.02E+11,2017,11,14,Philippines,Southeast Asia,Agusan del Sur,Mahagsay,8.544784,125.444062,1
2.02E+11,2017,2,18,Philippines,Southeast Asia,Davao del Sur,Inayangan,7.267752,125.440773,0
2.02E+11,2017,12,13,Philippines,Southeast Asia,Surigao del Norte,Magtangale,9.730278,125.430833,0
2.02E+11,2017,2,27,Philippines,Southeast Asia,Surigao del Norte,Tinago,9.613777,125.411322,0
2.02E+11,2017,1,16,Philippines,Southeast Asia,Davao del Sur,Saloy,7.300206,125.41013,1
2.02E+11,2017,4,9,Philippines,Southeast Asia,Davao del Sur,Gumalang,7.208333,125.403611,0
2.02E+11,2017,2,14,Philippines,Southeast Asia,Surigao del Norte,Malimono,9.617466,125.40209,0
2.02E+11,2017,12,7,Philippines,Southeast Asia,Davao del Sur,Carmen,7.170699,125.400308,-99
2.02E+11,2017,3,22,Philippines,Southeast Asia,Surigao del Norte,Jubgan,9.681835,125.396062,0
2.02E+11,2017,6,18,Philippines,Southeast Asia,Davao del Sur,Pagan Pequino,7.246699,125.383535,0
2.02E+11,2017,2,16,Philippines,Southeast Asia,Davao del Sur,Tawan-Tawan,7.174335,125.374053,0
2.02E+11,2017,12,1,Philippines,Southeast Asia,Sarangani,Balataan,6.185032,125.346625,2
2.02E+11,2017,3,14,Philippines,Southeast Asia,Bukidnon,San Fernando,7.91778,125.328624,0
2.02E+11,2017,10,16,Philippines,Southeast Asia,Sarangani,Tuyan,5.99627,125.292393,0
2.02E+11,2017,3,28,Philippines,Southeast Asia,Sarangani,Alabel,6.10179,125.29048,0
2.02E+11,2017,2,7,Philippines,Southeast Asia,Davao del Sur,Marilog,7.368979,125.283236,0
2.02E+11,2017,1,30,Philippines,Southeast Asia,Sarangani,Alabel,6.08525,125.272616,0
2.02E+11,2017,2,25,Philippines,Southeast Asia,Bukidnon,Lumbayao,7.946025,125.244473,0
2.02E+11,2017,10,29,Philippines,Southeast Asia,Davao del Sur,Kimlawis,6.62734,125.235645,2
2.02E+11,2017,3,26,Philippines,Southeast Asia,Bukidnon,Concepcion,7.887759,125.22153,0
2.02E+11,2017,3,8,Philippines,Southeast Asia,Davao del Sur,Sibayan,6.784057,125.217967,4
2.02E+11,2017,3,8,Philippines,Southeast Asia,Davao del Sur,Sibayan,6.784057,125.217967,2
2.02E+11,2017,7,19,Philippines,Southeast Asia,North Cotabato,Napalico,7.481878,125.212099,1
2.02E+11,2017,7,31,Philippines,Southeast Asia,Agusan del Norte,Unknown,9.062643,125.211945,-99
2.02E+11,2017,5,29,Philippines,Southeast Asia,Sarangani,Glan,5.822439,125.203366,0
2.02E+11,2017,10,25,Philippines,Southeast Asia,North Cotabato,Tumanding,7.346308,125.182953,1
2.02E+11,2017,2,1,Philippines,Southeast Asia,Bukidnon,Kibalabag,8.225311,125.182447,3
2.02E+11,2017,1,30,Philippines,Southeast Asia,Bukidnon,Concepcion,7.86319,125.170874,0
2.02E+11,2017,9,29,Philippines,Southeast Asia,Bukidnon,Calabugao,8.420361,125.16948,0
2.02E+11,2017,9,21,Philippines,Southeast Asia,North Cotabato,Santo Nino,7.335841,125.167236,3
2.02E+11,2017,9,29,Philippines,Southeast Asia,Bukidnon,Hagpa,8.49194,125.163761,0
2.02E+11,2017,10,14,Philippines,Southeast Asia,North Cotabato,Batasan,6.949318,125.160178,0
2.02E+11,2017,4,3,Philippines,Southeast Asia,North Cotabato,Batasan,6.948108,125.159735,0
2.02E+11,2017,10,3,Philippines,Southeast Asia,North Cotabato,Mahongkog,7.23922,125.159295,1
2.02E+11,2017,4,9,Philippines,Southeast Asia,North Cotabato,Mahungcog,7.244821,125.159197,0
2.02E+11,2017,6,5,Philippines,Southeast Asia,North Cotabato,Kisante,6.92306,125.155,0
2.02E+11,2017,9,16,Philippines,Southeast Asia,Davao del Sur,Malawanit,6.723931,125.150235,0
2.02E+11,2017,11,6,Philippines,Southeast Asia,North Cotabato,Napanlahan,7.353767,125.147445,1
2.02E+11,2017,2,8,Philippines,Southeast Asia,North Cotabato,Malibatuan,7.308063,125.147324,1
2.02E+11,2017,9,19,Philippines,Southeast Asia,North Cotabato,Anapolon,7.443109,125.143407,1
2.02E+11,2017,10,9,Philippines,Southeast Asia,North Cotabato,Balete,7.238841,125.142067,1
2.02E+11,2017,2,7,Philippines,Southeast Asia,North Cotabato,Balite,7.238969,125.142004,1
2.02E+11,2017,11,3,Philippines,Southeast Asia,Bukidnon,Casisang,8.135462,125.137908,0
2.02E+11,2017,6,10,Philippines,Southeast Asia,North Cotabato,Malasila,6.94389,125.12944,2
2.02E+11,2017,10,17,Philippines,Southeast Asia,Northern Samar,Sangay,12.535607,125.129215,1
2.02E+11,2017,2,25,Philippines,Southeast Asia,Bukidnon,Merangerang,7.763809,125.120193,0
2.02E+11,2017,10,8,Philippines,Southeast Asia,Bukidnon,Merangerang,7.763809,125.120193,0
2.02E+11,2017,3,30,Philippines,Southeast Asia,South Cotabato,Sinawal,6.120132,125.117342,0
2.02E+11,2017,2,21,Philippines,Southeast Asia,North Cotabato,Basak,7.213886,125.117251,1
2.02E+11,2017,2,19,Philippines,Southeast Asia,North Cotabato,Malire,7.288356,125.110374,0
2.02E+11,2017,8,25,Philippines,Southeast Asia,Misamis Oriental,Mimbalite,8.810398,125.10698,0
2.02E+11,2017,3,23,Philippines,Southeast Asia,North Cotabato,Camutan,7.255079,125.103966,-99
2.02E+11,2017,3,13,Philippines,Southeast Asia,North Cotabato,San Vincente,6.949902,125.101076,0
2.02E+11,2017,3,20,Philippines,Southeast Asia,Misamis Oriental,Gingoog,8.822198,125.100987,0
2.02E+11,2017,3,20,Philippines,Southeast Asia,Bukidnon,Quezon,7.730071,125.099395,0
2.02E+11,2017,2,3,Philippines,Southeast Asia,Bukidnon,Quezon district,7.73,125.099,1
2.02E+11,2017,8,16,Philippines,Southeast Asia,North Cotabato,Doroloman,7.345683,125.09248,0
2.02E+11,2017,3,16,Philippines,Southeast Asia,North Cotabato,Mateo,7.020898,125.091469,0
2.02E+11,2017,5,29,Philippines,Southeast Asia,North Cotabato,Kidapawan,7.020898,125.091469,0
2.02E+11,2017,5,5,Philippines,Southeast Asia,Bukidnon,Valencia,7.904959,125.09111,0
2.02E+11,2017,5,5,Philippines,Southeast Asia,Bukidnon,Valencia,7.904959,125.09111,0
2.02E+11,2017,10,9,Philippines,Southeast Asia,North Cotabato,Doroluman,7.34876,125.088955,0
2.02E+11,2017,7,22,Philippines,Southeast Asia,Bukidnon,Kitobo,7.609688,125.088363,1
2.02E+11,2017,5,26,Philippines,Southeast Asia,North Cotabato,Marbel,7.064015,125.087258,0
2.02E+11,2017,1,20,Philippines,Southeast Asia,North Cotabato,Makilala district,6.923432,125.082859,0
2.02E+11,2017,7,25,Philippines,Southeast Asia,Northern Samar,San Jorge,12.340315,125.069098,1
2.02E+11,2017,3,20,Philippines,Southeast Asia,Bukidnon,Patpat,8.196758,125.06471,0
2.02E+11,2017,9,27,Philippines,Southeast Asia,South Cotabato,Polomolok,6.224521,125.061266,1
2.02E+11,2017,7,9,Philippines,Southeast Asia,North Cotabato,President Roxas district,7.1609,125.060841,1
2.02E+11,2017,12,28,Philippines,Southeast Asia,North Cotabato,Tuael,7.135539,125.057363,-99
2.02E+11,2017,5,30,Philippines,Southeast Asia,North Cotabato,Labuo,7.130171,125.049507,0
2.02E+11,2017,11,27,Philippines,Southeast Asia,North Cotabato,Greenhills,7.187706,125.046388,0
2.02E+11,2017,12,16,Philippines,Southeast Asia,Northern Samar,Hinagonoyan,12.458056,125.045556,0
2.02E+11,2017,3,27,Philippines,Southeast Asia,Bukidnon,Magsaysay,8.076887,125.045419,0
2.02E+11,2017,9,21,Philippines,Southeast Asia,North Cotabato,Labuo,7.114167,125.045278,0
2.02E+11,2017,7,30,Philippines,Southeast Asia,Bukidnon,Bukang Liwayway,7.485713,125.044323,1
2.02E+11,2017,4,11,Philippines,Southeast Asia,North Cotabato,Macmod,7.108335,125.038816,0
2.02E+11,2017,12,1,Philippines,Southeast Asia,North Cotabato,Unknown,7.108335,125.038816,1
2.02E+11,2017,5,1,Philippines,Southeast Asia,Samar,Hilumot,12.023278,125.03354,2
2.02E+11,2017,5,26,Philippines,Southeast Asia,North Cotabato,Sikitan,7.067748,125.033156,0
2.02E+11,2017,12,10,Philippines,Southeast Asia,Northern Samar,Bugay,12.352465,125.019541,0
2.02E+11,2017,12,10,Philippines,Southeast Asia,Northern Samar,Las Navas district,12.306408,125.016787,0
2.02E+11,2017,8,16,Philippines,Southeast Asia,North Cotabato,Katipunan,7.042418,125.007119,0
2.02E+11,2017,5,27,Philippines,Southeast Asia,Bukidnon,Laportuna,8.266667,124.983333,0
2.02E+11,2017,3,24,Philippines,Southeast Asia,South Cotabato,Liberty,6.455771,124.981569,0
2.02E+11,2017,5,19,Philippines,Southeast Asia,Misamis Oriental,Pelaez,8.698314,124.979063,0
2.02E+11,2017,3,30,Philippines,Southeast Asia,Samar,Motiong,11.778665,124.978519,0
2.02E+11,2017,2,1,Philippines,Southeast Asia,Sultan Kudarat,Telafas,6.635278,124.975,0
2.02E+11,2017,7,26,Philippines,Southeast Asia,Samar,Jian,11.836268,124.961687,0
2.02E+11,2017,1,4,Philippines,Southeast Asia,North Cotabato,Amas,7.065261,124.961053,7
2.02E+11,2017,2,22,Philippines,Southeast Asia,Samar,Jiabong,11.763428,124.950514,1
2.02E+11,2017,10,26,Philippines,Southeast Asia,South Cotabato,Tupi,6.333312,124.950048,1
2.02E+11,2017,11,13,Philippines,Southeast Asia,South Cotabato,Tupi district,6.33,124.95,1
2.02E+11,2017,9,16,Philippines,Southeast Asia,North Cotabato,Matalam district,7.1525,124.923637,1
2.02E+11,2017,3,3,Philippines,Southeast Asia,Samar,Canlapwas,11.789409,124.896312,0
2.02E+11,2017,3,30,Philippines,Southeast Asia,Northern Samar,Geparayan,12.321094,124.892505,0
2.02E+11,2017,8,9,Philippines,Southeast Asia,South Cotabato,Rotonda,6.521944,124.89,1
2.02E+11,2017,2,1,Philippines,Southeast Asia,North Cotabato,Mlang,6.946206,124.878099,1
2.02E+11,2017,2,27,Philippines,Southeast Asia,Misamis Oriental,Kaulayanan,8.880206,124.868101,1
2.02E+11,2017,10,26,Philippines,Southeast Asia,North Cotabato,Gaunan,6.931313,124.861802,2
2.02E+11,2017,11,7,Philippines,Southeast Asia,Sarangani,Lumasal,5.885282,124.849465,0
2.02E+11,2017,5,24,Philippines,Southeast Asia,Bukidnon,Santo Nino,7.83934,124.840341,0
2.02E+11,2017,8,21,Philippines,Southeast Asia,North Cotabato,Kabacan district,7.107192,124.840341,0
2.02E+11,2017,8,21,Philippines,Southeast Asia,South Cotabato,Tudok,6.015738,124.8252,0
2.02E+11,2017,9,27,Philippines,Southeast Asia,South Cotabato,Tudok,6.023563,124.825031,0
2.02E+11,2017,10,3,Philippines,Southeast Asia,South Cotabato,T'Boli,6.219977,124.819924,0
2.02E+11,2017,3,1,Philippines,Southeast Asia,North Cotabato,Kabacan,7.112214,124.809737,0
2.02E+11,2017,3,6,Philippines,Southeast Asia,Misamis Oriental,San Juan,8.750112,124.797942,0
2.02E+11,2017,8,12,Philippines,Southeast Asia,South Cotabato,Banga,6.3884,124.796146,0
2.02E+11,2017,10,3,Philippines,Southeast Asia,North Cotabato,Manarapan,7.256043,124.789938,0
2.02E+11,2017,12,3,Philippines,Southeast Asia,Misamis Oriental,Binuangan,8.919581,124.783746,-99
2.02E+11,2017,3,20,Philippines,Southeast Asia,Misamis Oriental,Balingasag district,8.744462,124.781605,0
2.02E+11,2017,10,1,Philippines,Southeast Asia,Sarangani,Maligang,5.976427,124.772642,0
2.02E+11,2017,9,27,Philippines,Southeast Asia,Sarangani,Maligang,5.995118,124.743298,0
2.02E+11,2017,4,19,Philippines,Southeast Asia,Maguindanao,Nabundas,7.121111,124.7425,0
2.02E+11,2017,8,7,Philippines,Southeast Asia,Sultan Kudarat,President Quirino,6.702104,124.741539,1
2.02E+11,2017,3,3,Philippines,Southeast Asia,Samar,Silanga,11.823425,124.69506,0
2.02E+11,2017,11,19,Philippines,Southeast Asia,North Cotabato,Inug-og,7.050292,124.68843,0
2.02E+11,2017,6,20,Philippines,Southeast Asia,Leyte,Paglaum,11.3,124.68,0
2.02E+11,2017,4,3,Philippines,Southeast Asia,Sultan Kudarat,Tacurong,6.687966,124.678774,0
2.02E+11,2017,4,17,Philippines,Southeast Asia,Sultan Kudarat,Tacurong,6.687966,124.678774,0
2.02E+11,2017,4,17,Philippines,Southeast Asia,Sultan Kudarat,Tacurong,6.687966,124.678774,0
2.02E+11,2017,1,29,Philippines,Southeast Asia,North Cotabato,Nalapaan,7.054,124.671997,0
2.02E+11,2017,6,29,Philippines,Southeast Asia,North Cotabato,Bualan,7.05,124.67,0
2.02E+11,2017,7,10,Philippines,Southeast Asia,North Cotabato,Dalingaoen,7.090853,124.657999,1
2.02E+11,2017,2,26,Philippines,Southeast Asia,North Cotabato,Kabasalan,6.97282,124.630855,2
2.02E+11,2017,1,29,Philippines,Southeast Asia,North Cotabato,Pagangan,7.188938,124.630337,0
2.02E+11,2017,4,5,Philippines,Southeast Asia,Sarangani,Kiamba,5.989446,124.629173,0
2.02E+11,2017,2,9,Philippines,Southeast Asia,Bukidnon,Tikalaan,8.035507,124.626297,1
2.02E+11,2017,2,9,Philippines,Southeast Asia,Bukidnon,Tikalaan,8.035507,124.626297,0
2.02E+11,2017,11,9,Philippines,Southeast Asia,Bukidnon,Tikalaan,8.035507,124.626297,2
2.02E+11,2017,11,10,Philippines,Southeast Asia,Bukidnon,Tikalaan,8.036249,124.626157,0
2.02E+11,2017,12,30,Philippines,Southeast Asia,North Cotabato,Pikit district,7.053143,124.61927,1
2.02E+11,2017,6,20,Philippines,Southeast Asia,Northern Samar,Somage,12.41667,124.61667,0
2.02E+11,2017,6,5,Philippines,Southeast Asia,Sarangani,Kiamba district,6.034726,124.605189,0
2.02E+11,2017,11,22,Philippines,Southeast Asia,Sultan Kudarat,Kalawag,6.631996,124.60181,0
2.02E+11,2017,5,22,Philippines,Southeast Asia,Sultan Kudarat,Isulan,6.632264,124.597814,0
2.02E+11,2017,4,18,Philippines,Southeast Asia,North Cotabato,Pagangan,7.119097,124.597462,0
2.02E+11,2017,12,7,Philippines,Southeast Asia,Sultan Kudarat,Dansuli,6.644478,124.596186,1
2.02E+11,2017,1,5,Philippines,Southeast Asia,Sarangani,Nalus,6.012985,124.593255,0
2.02E+11,2017,1,14,Philippines,Southeast Asia,Misamis Oriental,Dansolihon,8.316667,124.566667,0
2.02E+11,2017,1,30,Philippines,Southeast Asia,Sarangani,Lebe,6.017535,124.550206,0
2.02E+11,2017,5,9,Philippines,Southeast Asia,Maguindanao,Manongkaling,6.909836,124.549214,0
2.02E+11,2017,7,28,Philippines,Southeast Asia,Maguindanao,Pidsandawan,6.928128,124.536223,4
2.02E+11,2017,10,9,Philippines,Southeast Asia,North Cotabato,Midsayap district,7.190093,124.535703,1
2.02E+11,2017,4,1,Philippines,Southeast Asia,North Cotabato,Midsayap,7.187784,124.53255,0
2.02E+11,2017,2,26,Philippines,Southeast Asia,North Cotabato,Midsayap,7.189181,124.532497,0
2.02E+11,2017,8,20,Philippines,Southeast Asia,Sultan Kudarat,Laguilaylan,6.670716,124.523985,0
2.02E+11,2017,9,28,Philippines,Southeast Asia,North Cotabato,Bual,7.183068,124.517938,1
2.02E+11,2017,4,4,Philippines,Southeast Asia,Maguindanao,Tukanalipao,6.9235,124.512213,1
2.02E+11,2017,2,2,Philippines,Southeast Asia,North Cotabato,Nabalawag,7.062429,124.510817,0
2.02E+11,2017,8,30,Philippines,Southeast Asia,Maguindanao,Tukanalipao,6.928043,124.506165,1
2.02E+11,2017,6,4,Philippines,Southeast Asia,Maguindanao,Tukanalipao,6.93111,124.505,4
2.02E+11,2017,1,31,Philippines,Southeast Asia,North Cotabato,Nabalawag,7.073259,124.502837,0
2.02E+11,2017,3,31,Philippines,Southeast Asia,Maguindanao,Nabundas,6.880979,124.49909,0
2.02E+11,2017,8,13,Philippines,Southeast Asia,Maguindanao,Tapikan,6.905985,124.496485,0
2.02E+11,2017,7,29,Philippines,Southeast Asia,Maguindanao,Dagading,7.006906,124.489635,0
2.02E+11,2017,1,25,Philippines,Southeast Asia,Maguindanao,Nabundas,6.881951,124.48393,0
2.02E+11,2017,11,18,Philippines,Southeast Asia,Maguindanao,Buayan,7.025703,124.483579,0
2.02E+11,2017,5,6,Philippines,Southeast Asia,Maguindanao,Pagatin,6.980848,124.482925,0
2.02E+11,2017,5,7,Philippines,Southeast Asia,Maguindanao,Pagatin,6.980848,124.482925,0
2.02E+11,2017,3,23,Philippines,Southeast Asia,Maguindanao,Shariff Saydona Mustapha,6.976348,124.482066,0
2.02E+11,2017,5,7,Philippines,Southeast Asia,Maguindanao,Datu Salibo district,6.976085,124.481497,1
2.02E+11,2017,12,3,Philippines,Southeast Asia,Maguindanao,Timbangan,6.876083,124.478043,2
2.02E+11,2017,3,10,Philippines,Southeast Asia,Maguindanao,Sambolawan,6.988958,124.477051,0
2.02E+11,2017,12,25,Philippines,Southeast Asia,Maguindanao,Maitemaig,6.898558,124.476696,10
2.02E+11,2017,11,18,Philippines,Southeast Asia,Maguindanao,Timbangan,6.901129,124.473394,0
2.02E+11,2017,10,15,Philippines,Southeast Asia,Sarangani,Kalaong,6.06132,124.470025,0
2.02E+11,2017,3,13,Philippines,Southeast Asia,Maguindanao,Datu Salibo district,6.966715,124.469906,0
2.02E+11,2017,7,4,Philippines,Southeast Asia,Maguindanao,Kauran,6.80636,124.469728,0
2.02E+11,2017,3,30,Philippines,Southeast Asia,Maguindanao,Labu-Labu,6.873793,124.469186,0
2.02E+11,2017,11,9,Philippines,Southeast Asia,Maguindanao,Labo-Labo,6.873724,124.468643,0
2.02E+11,2017,9,29,Philippines,Southeast Asia,Maguindanao,Tee,6.996481,124.463562,4
2.02E+11,2017,11,12,Philippines,Southeast Asia,Lanao del Norte,Rogongon,8.239274,124.456908,1
2.02E+11,2017,8,18,Philippines,Southeast Asia,Maguindanao,Datu Salibo district,7.00222,124.453685,5
2.02E+11,2017,7,19,Philippines,Southeast Asia,Maguindanao,Datu Salibo district,7.003271,124.453097,0
2.02E+11,2017,5,8,Philippines,Southeast Asia,Maguindanao,Datu Saudi Ampatuan district,6.966834,124.453097,0
2.02E+11,2017,8,4,Philippines,Southeast Asia,Maguindanao,Meta,6.918611,124.451944,0
2.02E+11,2017,12,25,Philippines,Southeast Asia,Maguindanao,Iginampong,6.934167,124.45,0
2.02E+11,2017,3,28,Philippines,Southeast Asia,Maguindanao,Datu Saudi-Ampatuan district,6.950849,124.448028,0
2.02E+11,2017,5,7,Philippines,Southeast Asia,Maguindanao,Datu Hoffer,6.855208,124.446175,0
2.02E+11,2017,8,4,Philippines,Southeast Asia,Maguindanao,Datu Unsay district,6.905182,124.446115,0
2.02E+11,2017,3,11,Philippines,Southeast Asia,Maguindanao,Datu Saudi-Ampatuan district,6.957177,124.444624,0
2.02E+11,2017,12,28,Philippines,Southeast Asia,Maguindanao,Datu Saudi-Ampatuan district,6.95706,124.444287,1
2.02E+11,2017,10,19,Philippines,Southeast Asia,Maguindanao,Shariff Aguak,6.862806,124.443649,0
2.02E+11,2017,12,28,Philippines,Southeast Asia,Maguindanao,Shariff Aguak,6.862806,124.443649,2
2.02E+11,2017,12,31,Philippines,Southeast Asia,Maguindanao,Shariff Aguak,6.862806,124.443649,1
2.02E+11,2017,12,12,Philippines,Southeast Asia,Maguindanao,Shariff Aguak district,6.860193,124.442701,0
2.02E+11,2017,5,8,Philippines,Southeast Asia,Maguindanao,Shariff Aguak district,6.864778,124.44162,0
2.02E+11,2017,5,10,Philippines,Southeast Asia,Maguindanao,Upam,6.864778,124.44162,0
2.02E+11,2017,12,31,Philippines,Southeast Asia,Maguindanao,Kubentog,6.900742,124.437908,0
2.02E+11,2017,12,31,Philippines,Southeast Asia,Maguindanao,Limpogo,6.983953,124.420664,0
2.02E+11,2017,3,8,Philippines,Southeast Asia,Maguindanao,Timbangan,6.813138,124.413442,0
2.02E+11,2017,5,18,Philippines,Southeast Asia,Maguindanao,Timbangan,6.813138,124.413442,0
2.02E+11,2017,6,21,Philippines,Southeast Asia,North Cotabato,Simsiman,7.242311,124.412419,3
2.02E+11,2017,7,19,Philippines,Southeast Asia,Maguindanao,Shariff Aguak district,6.85308,124.397636,0
2.02E+11,2017,4,9,Philippines,Southeast Asia,Maguindanao,Ganta,7.124623,124.396595,0
2.02E+11,2017,6,21,Philippines,Southeast Asia,North Cotabato,Pigkawayan district,7.24444,124.39056,0
2.02E+11,2017,6,21,Philippines,Southeast Asia,North Cotabato,Malagakit,7.245085,124.390393,4
2.02E+11,2017,6,21,Philippines,Southeast Asia,North Cotabato,Malagakit,7.245085,124.390393,0
2.02E+11,2017,6,21,Philippines,Southeast Asia,North Cotabato,Malagakit,7.245085,124.390393,0
2.02E+11,2017,2,21,Philippines,Southeast Asia,Maguindanao,Guindulungan,6.976311,124.386043,1
2.02E+11,2017,9,29,Philippines,Southeast Asia,Maguindanao,Tambunan,6.978114,124.384297,0
2.02E+11,2017,3,27,Philippines,Southeast Asia,Maguindanao,Talayan,6.979245,124.382941,0
2.02E+11,2017,4,21,Philippines,Southeast Asia,Maguindanao,Talayan,6.980556,124.381944,0
2.02E+11,2017,6,21,Philippines,Southeast Asia,North Cotabato,Simsiman,7.232336,124.381207,0
2.02E+11,2017,7,28,Philippines,Southeast Asia,Maguindanao,Talitay district,7.0315,124.375035,1
2.02E+11,2017,2,22,Philippines,Southeast Asia,Lanao del Sur,Ragayan,7.83611,124.36306,1
2.02E+11,2017,10,8,Philippines,Southeast Asia,Maguindanao,Guindulungan district,6.962814,124.362645,0
2.02E+11,2017,7,13,Philippines,Southeast Asia,Maguindanao,Datu Anggal,6.933333,124.333333,0
2.02E+11,2017,10,8,Philippines,Southeast Asia,Maguindanao,Datu Anggal Midtimbang district,7.008897,124.326981,0
2.02E+11,2017,3,6,Philippines,Southeast Asia,Maguindanao,Parang,7.333566,124.316776,1
2.02E+11,2017,5,15,Philippines,Southeast Asia,Bohol,Cahayag,9.783552,124.301971,0
2.02E+11,2017,8,6,Philippines,Southeast Asia,Lanao del Sur,Marawi,8.000178,124.300179,2
2.02E+11,2017,8,15,Philippines,Southeast Asia,Lanao del Sur,Marawi,8.000178,124.300179,0
2.02E+11,2017,7,21,Philippines,Southeast Asia,Lanao del Sur,Marawi,7.999799,124.300068,9
2.02E+11,2017,7,21,Philippines,Southeast Asia,Lanao del Sur,Marawi,7.999799,124.300068,0
2.02E+11,2017,8,18,Philippines,Southeast Asia,Lanao del Sur,Marawi,8.000147,124.299951,0
2.02E+11,2017,8,23,Philippines,Southeast Asia,Lanao del Sur,Marawi,8.000147,124.299951,1
2.02E+11,2017,8,31,Philippines,Southeast Asia,Lanao del Sur,Marawi,8.000147,124.299951,3
2.02E+11,2017,7,28,Philippines,Southeast Asia,Lanao del Sur,Marawi,7.999981,124.299937,3
2.02E+11,2017,3,5,Philippines,Southeast Asia,Lanao del Sur,Marawi,8.000356,124.299721,-99
2.02E+11,2017,5,23,Philippines,Southeast Asia,Lanao del Sur,Marawi,8.000791,124.297417,0
2.02E+11,2017,3,28,Philippines,Southeast Asia,Lanao del Sur,Marinaut,7.99689,124.297385,-99
2.02E+11,2017,2,16,Philippines,Southeast Asia,Lanao del Sur,Marawi,8.003485,124.294995,2
2.02E+11,2017,5,23,Philippines,Southeast Asia,Lanao del Sur,Marawi,8.001314,124.293493,-99
2.02E+11,2017,6,12,Philippines,Southeast Asia,Lanao del Sur,Marawi,8.000721,124.293111,5
2.02E+11,2017,6,13,Philippines,Southeast Asia,Lanao del Sur,Marawi,8.000721,124.293111,0
2.02E+11,2017,6,2,Philippines,Southeast Asia,Lanao del Sur,Marawi,8.000088,124.292555,1
2.02E+11,2017,5,23,Philippines,Southeast Asia,Lanao del Sur,Marawi,8.005161,124.287527,9
2.02E+11,2017,5,23,Philippines,Southeast Asia,Lanao del Sur,Marawi,8.004016,124.287184,0
2.02E+11,2017,5,23,Philippines,Southeast Asia,Lanao del Sur,Marawi,8.004016,124.287184,0
2.02E+11,2017,5,23,Philippines,Southeast Asia,Lanao del Sur,Marawi,8.004016,124.287184,2
2.02E+11,2017,5,27,Philippines,Southeast Asia,Lanao del Sur,Marawi,8.004016,124.287184,8
2.02E+11,2017,5,23,Philippines,Southeast Asia,Lanao del Sur,Marawi,8.006769,124.283989,2
2.02E+11,2017,5,6,Philippines,Southeast Asia,Maguindanao,Macabiso,7.288472,124.269943,0
2.02E+11,2017,8,10,Philippines,Southeast Asia,Catanduanes,Sagrada,13.827547,124.267638,0
2.02E+11,2017,8,10,Philippines,Southeast Asia,Catanduanes,Sagrada,13.827547,124.267638,2
2.02E+11,2017,11,15,Philippines,Southeast Asia,Lanao del Norte,Iligan City,8.226319,124.255961,0
2.02E+11,2017,8,19,Philippines,Southeast Asia,Lanao del Sur,Lumbatan district,7.755217,124.253274,0
2.02E+11,2017,9,24,Philippines,Southeast Asia,Bohol,Progreso,9.873573,124.245313,1
2.02E+11,2017,2,24,Philippines,Southeast Asia,Lanao del Norte,Iligan,8.228021,124.245242,2
2.02E+11,2017,3,3,Philippines,Southeast Asia,Maguindanao,Cotabato,7.209594,124.241966,0
2.02E+11,2017,3,13,Philippines,Southeast Asia,Maguindanao,Cotabato,7.209594,124.241966,2
2.02E+11,2017,12,12,Philippines,Southeast Asia,Maguindanao,Cotabato City,7.209594,124.241966,0
2.02E+11,2017,12,30,Philippines,Southeast Asia,Maguindanao,Cotabato City,7.209594,124.241966,0
2.02E+11,2017,12,31,Philippines,Southeast Asia,Maguindanao,Cotabato City,7.209594,124.241966,0
2.02E+11,2017,8,5,Philippines,Southeast Asia,Lanao del Sur,Marantao,7.94989,124.233141,0
2.02E+11,2017,8,22,Philippines,Southeast Asia,Lanao del Sur,Marantao,7.94989,124.233141,1
2.02E+11,2017,12,20,Philippines,Southeast Asia,Maguindanao,Tamontaka,7.172751,124.229664,0
2.02E+11,2017,12,20,Philippines,Southeast Asia,Maguindanao,Tamontaka,7.172751,124.229664,0
2.02E+11,2017,6,10,Philippines,Southeast Asia,Lanao del Norte,Payawan,8.10833,124.22889,4
2.02E+11,2017,6,27,Philippines,Southeast Asia,Maguindanao,Tamontaka,7.18056,124.22556,4
2.02E+11,2017,12,1,Philippines,Southeast Asia,Lanao del Sur,Matampay,7.978188,124.222706,2
2.02E+11,2017,9,27,Philippines,Southeast Asia,Maguindanao,Awang,7.153167,124.22117,0
2.02E+11,2017,3,27,Philippines,Southeast Asia,Maguindanao,Tamontaka,7.179762,124.220882,0
2.02E+11,2017,1,28,Philippines,Southeast Asia,Maguindanao,Awang,7.159972,124.218699,0
2.02E+11,2017,9,27,Philippines,Southeast Asia,Maguindanao,Datu Odin Sinsuat,7.18109,124.21273,0
2.02E+11,2017,9,27,Philippines,Southeast Asia,Maguindanao,Datu Odin Sinsuat,7.18109,124.21273,0
2.02E+11,2017,12,5,Philippines,Southeast Asia,Lanao del Sur,Piagapo,7.965763,124.202866,3
2.02E+11,2017,9,20,Philippines,Southeast Asia,Lanao del Sur,Bayang district,7.793,124.192,0
2.02E+11,2017,12,9,Philippines,Southeast Asia,Maguindanao,Upi district,7.0171,124.175444,0
2.02E+11,2017,12,9,Philippines,Southeast Asia,Maguindanao,Mirab,7.0425,124.169444,0
2.02E+11,2017,12,9,Philippines,Southeast Asia,Maguindanao,Nuro,7.01,124.1625,0
2.02E+11,2017,5,10,Philippines,Southeast Asia,Sultan Kudarat,Datu Wasay,6.534412,124.137762,2
2.02E+11,2017,11,3,Philippines,Southeast Asia,Sorsogon,Gubat,12.920064,124.123,0
2.02E+11,2017,10,15,Philippines,Southeast Asia,Sorsogon,Gubat district,12.91851,124.120324,1
2.02E+11,2017,9,18,Philippines,Southeast Asia,Sorsogon,San Ignacio,12.937425,124.11812,0
2.02E+11,2017,5,17,Philippines,Southeast Asia,Sultan Kudarat,Bolebak,6.721638,124.113104,0
2.02E+11,2017,3,20,Philippines,Southeast Asia,Sultan Kudarat,Hinalaan,6.509646,124.108599,7
2.02E+11,2017,6,3,Philippines,Southeast Asia,Sorsogon,Matnog district,12.583333,124.083333,1
2.02E+11,2017,8,7,Philippines,Southeast Asia,Sorsogon,Casili,12.935278,124.082778,2
2.02E+11,2017,6,13,Philippines,Southeast Asia,Sorsogon,Bentuco,12.850382,124.071133,1
2.02E+11,2017,6,25,Philippines,Southeast Asia,Lanao del Norte,Munai district,7.98,124.07,0
2.02E+11,2017,8,16,Philippines,Southeast Asia,Sorsogon,Marinas,12.943154,124.06971,1
2.02E+11,2017,6,9,Philippines,Southeast Asia,Sorsogon,Camcaman,12.627043,124.069382,1
2.02E+11,2017,6,9,Philippines,Southeast Asia,Sorsogon,Camcaman,12.588993,124.069382,1
2.02E+11,2017,2,6,Philippines,Southeast Asia,Sorsogon,Trece Martirez,12.910538,124.042478,0
2.02E+11,2017,7,12,Philippines,Southeast Asia,Masbate,Gahit,12.040278,123.983056,0
2.02E+11,2017,7,12,Philippines,Southeast Asia,Masbate,Gahit,12.040278,123.983056,0
2.02E+11,2017,7,12,Philippines,Southeast Asia,Masbate,Busay,12.072652,123.970902,0
2.02E+11,2017,11,15,Philippines,Southeast Asia,Masbate,Matagangtang,11.935426,123.951802,1
2.02E+11,2017,5,22,Philippines,Southeast Asia,Masbate,Nadawisan,12.029167,123.942778,1
2.02E+11,2017,8,24,Philippines,Southeast Asia,Sorsogon,Somagonsong,12.708158,123.894143,1
2.02E+11,2017,9,14,Philippines,Southeast Asia,Masbate,Pasyagon,11.884444,123.881389,1
2.02E+11,2017,10,15,Philippines,Southeast Asia,Sorsogon,Bulan district,12.666918,123.876024,0
2.02E+11,2017,5,15,Philippines,Southeast Asia,Bohol,Lawis,9.899154,123.840475,1
2.02E+11,2017,4,21,Philippines,Southeast Asia,Masbate,Badling,12.215028,123.820561,0
2.02E+11,2017,3,11,Philippines,Southeast Asia,Masbate,Uson,12.168163,123.774045,2
2.02E+11,2017,11,12,Philippines,Southeast Asia,Masbate,Buyo,12.454722,123.771389,1
2.02E+11,2017,4,21,Philippines,Southeast Asia,Masbate,San Fernando district,12.483523,123.758673,0
2.02E+11,2017,4,21,Philippines,Southeast Asia,Masbate,Del Carmen,12.128029,123.753972,0
2.02E+11,2017,8,13,Philippines,Southeast Asia,Misamis Occidental,Fertig Hills,8.073279,123.737353,0
2.02E+11,2017,11,18,Philippines,Southeast Asia,Masbate,Cawayan district,12.055794,123.72942,0
2.02E+11,2017,12,21,Philippines,Southeast Asia,Masbate,Cawayan district,12.055794,123.72942,2
2.02E+11,2017,9,16,Philippines,Southeast Asia,Masbate,Libertad,12.068103,123.722371,1
2.02E+11,2017,9,28,Philippines,Southeast Asia,Albay,Bascaran,13.105475,123.698382,0
2.02E+11,2017,11,18,Philippines,Southeast Asia,Albay,Anislag,13.067108,123.695149,1
2.02E+11,2017,9,28,Philippines,Southeast Asia,Albay,Alobo,13.111536,123.676382,0
2.02E+11,2017,9,28,Philippines,Southeast Asia,Albay,Alobo,13.111536,123.676382,0
2.02E+11,2017,9,30,Philippines,Southeast Asia,Masbate,Poblacion,12.63597,123.659062,1
2.02E+11,2017,9,27,Philippines,Southeast Asia,Masbate,Masbate City,12.369767,123.626846,1
2.02E+11,2017,10,16,Philippines,Southeast Asia,Albay,Joroan,13.489285,123.618496,3
2.02E+11,2017,9,14,Philippines,Southeast Asia,Masbate,Buhi,12.608056,123.606667,1
2.02E+11,2017,8,23,Philippines,Southeast Asia,Sorsogon,Central,12.910675,123.594594,1
2.02E+11,2017,3,13,Philippines,Southeast Asia,Masbate,Bacolod,12.349039,123.571724,1
2.02E+11,2017,8,6,Philippines,Southeast Asia,Zamboanga del Sur,Molave district,8.104186,123.494397,1
2.02E+11,2017,3,10,Philippines,Southeast Asia,Albay,Palapas,13.116889,123.468448,1
2.02E+11,2017,6,27,Philippines,Southeast Asia,Negros Occidental,Libertad,10.782416,123.459842,0
2.02E+11,2017,7,17,Philippines,Southeast Asia,Albay,Pio Duran,13.033117,123.449759,2
2.02E+11,2017,5,29,Philippines,Southeast Asia,Camarines Sur,Pinaglabanan,13.705556,123.444722,0
2.02E+11,2017,7,3,Philippines,Southeast Asia,Zamboanga del Sur,Pagadian,7.825203,123.437378,1
2.02E+11,2017,8,11,Philippines,Southeast Asia,Zamboanga del Sur,Pagadian,7.825203,123.437378,0
2.02E+11,2017,10,24,Philippines,Southeast Asia,Zamboanga del Sur,Pagadian,7.825203,123.437378,1
2.02E+11,2017,11,15,Philippines,Southeast Asia,Zamboanga del Norte,Pedagan,8.225147,123.429944,1
2.02E+11,2017,6,8,Philippines,Southeast Asia,Camarines Sur,San Antonio,13.371,123.4202,1
2.02E+11,2017,1,6,Philippines,Southeast Asia,Masbate,Luy-a,12.407778,123.405833,1
2.02E+11,2017,3,7,Philippines,Southeast Asia,Zamboanga del Sur,Damplan,7.822408,123.391038,3
2.02E+11,2017,5,7,Philippines,Southeast Asia,Masbate,Talabaan,12.506405,123.380874,1
2.02E+11,2017,12,11,Philippines,Southeast Asia,Zamboanga del Sur,Poblacion,7.528257,123.365998,1
2.02E+11,2017,3,18,Philippines,Southeast Asia,Negros Occidental,Paraiso,10.89234,123.353798,1
2.02E+11,2017,7,23,Philippines,Southeast Asia,Zamboanga del Sur,Poblacion,7.532133,123.351363,1
2.02E+11,2017,6,22,Philippines,Southeast Asia,Negros Occidental,Minapasok,10.69885,123.349,2
2.02E+11,2017,2,17,Philippines,Southeast Asia,Zamboanga del Sur,San Pedro,8.15632,123.346316,0
2.02E+11,2017,2,18,Philippines,Southeast Asia,Zamboanga del Sur,San Pedro,8.15632,123.346316,1
2.02E+11,2017,2,22,Philippines,Southeast Asia,Zamboanga del Sur,Midsalip,8.030654,123.311882,0
2.02E+11,2017,9,14,Philippines,Southeast Asia,Negros Occidental,Tinampaan,10.926348,123.309328,0
2.02E+11,2017,9,29,Philippines,Southeast Asia,Zamboanga del Sur,Unknown,7.880224,123.304267,0
2.02E+11,2017,3,12,Philippines,Southeast Asia,Zamboanga del Sur,Concepcion,7.682236,123.296639,1
2.02E+11,2017,8,30,Philippines,Southeast Asia,Negros Oriental,Guihulngan,10.119626,123.270972,1
2.02E+11,2017,7,21,Philippines,Southeast Asia,Negros Oriental,Magsaysay,10.118769,123.2704,6
2.02E+11,2017,7,21,Philippines,Southeast Asia,Negros Oriental,Magsaysay,10.118769,123.2704,1
2.02E+11,2017,4,22,Philippines,Southeast Asia,Zamboanga del Sur,San Miguel,7.64839,123.267254,2
2.02E+11,2017,7,9,Philippines,Southeast Asia,Zamboanga del Sur,Licabang,8.20529,123.264409,0
2.02E+11,2017,8,4,Philippines,Southeast Asia,Negros Oriental,Magsaysay,10.129501,123.239133,7
2.02E+11,2017,10,1,Philippines,Southeast Asia,Negros Occidental,Bagong Silang,10.55056,123.23639,1
2.02E+11,2017,1,12,Philippines,Southeast Asia,Negros Occidental,Bayog,10.412469,123.225753,1
2.02E+11,2017,8,17,Philippines,Southeast Asia,Negros Oriental,Tinayunan,10.117858,123.224263,1
2.02E+11,2017,6,19,Philippines,Southeast Asia,Negros Oriental,Mabigo,10.38,123.2,1
2.02E+11,2017,1,20,Philippines,Southeast Asia,Negros Oriental,La Libertad district,10.050204,123.191372,1
2.02E+11,2017,8,25,Philippines,Southeast Asia,Negros Oriental,Sandayao,10.220368,123.185752,0
2.02E+11,2017,3,18,Philippines,Southeast Asia,Camarines Sur,Upper Santa Cruz,13.654084,123.167483,1
2.02E+11,2017,2,27,Philippines,Southeast Asia,Negros Occidental,Montilla,10.2813,123.1429,1
2.02E+11,2017,10,19,Philippines,Southeast Asia,Negros Oriental,Luz,10.18668,123.131017,1
2.02E+11,2017,2,22,Philippines,Southeast Asia,Zamboanga del Norte,Siayan,8.133333,123.1,0
2.02E+11,2017,8,22,Philippines,Southeast Asia,Camarines Sur,San Vicente,13.64286,123.086628,1
2.02E+11,2017,9,15,Philippines,Southeast Asia,Negros Occidental,Lopez Jaena,10.565506,123.081714,3
2.02E+11,2017,1,2,Philippines,Southeast Asia,Zamboanga Sibugay,Basalem,7.740712,123.076513,0
2.02E+11,2017,7,16,Philippines,Southeast Asia,Zamboanga del Norte,Bawa,8.123469,123.053577,0
2.02E+11,2017,7,2,Philippines,Southeast Asia,Negros Occidental,Bacong,10.518937,123.03455,0
2.02E+11,2017,7,30,Philippines,Southeast Asia,Negros Oriental,Catigucan,9.073381,123.016987,0
2.02E+11,2017,12,7,Philippines,Southeast Asia,Negros Occidental,Talisay,10.737698,122.969069,0
2.02E+11,2017,2,7,Philippines,Southeast Asia,Capiz,Culilang,11.441993,122.948015,0
2.02E+11,2017,3,17,Philippines,Southeast Asia,Negros Occidental,Sibucawan,10.206949,122.944672,1
2.02E+11,2017,9,13,Philippines,Southeast Asia,Camarines Sur,Calabnigan,13.677829,122.932497,1
2.02E+11,2017,4,6,Philippines,Southeast Asia,Negros Oriental,Talalak,9.344678,122.924243,1
2.02E+11,2017,11,13,Philippines,Southeast Asia,Negros Oriental,Talalak,9.343975,122.923919,1
2.02E+11,2017,4,11,Philippines,Southeast Asia,Negros Occidental,San Antonio,10.080622,122.884023,1
2.02E+11,2017,2,14,Philippines,Southeast Asia,Zamboanga Sibugay,La Paz,7.476866,122.861858,0
2.02E+11,2017,10,1,Philippines,Southeast Asia,Negros Occidental,Bayabas,10.457043,122.859683,3
2.02E+11,2017,11,28,Philippines,Southeast Asia,Negros Oriental,Bayawan district,9.449891,122.853576,2
2.02E+11,2017,3,20,Philippines,Southeast Asia,Negros Occidental,Buenavista,10.028978,122.847903,1
2.02E+11,2017,10,2,Philippines,Southeast Asia,Zamboanga Sibugay,Santo Nino,7.473527,122.845682,0
2.02E+11,2017,7,8,Philippines,Southeast Asia,Negros Occidental,Agbalasyang,10.532904,122.836652,1
2.02E+11,2017,11,26,Philippines,Southeast Asia,Negros Occidental,Orong,9.937655,122.828535,0
2.02E+11,2017,11,8,Philippines,Southeast Asia,Negros Occidental,Tapi,9.831149,122.753447,1
2.02E+11,2017,12,2,Philippines,Southeast Asia,Camarines Norte,Daguit,14.184076,122.701195,1
2.02E+11,2017,8,9,Philippines,Southeast Asia,Camarines Norte,Nakalaya,14.274054,122.673597,1
2.02E+11,2017,9,25,Philippines,Southeast Asia,Zamboanga del Norte,Baybay,8.115161,122.669979,2
2.02E+11,2017,5,27,Philippines,Southeast Asia,Camarines Sur,Gudofredo Reyes,13.878069,122.662987,1
2.02E+11,2017,5,26,Philippines,Southeast Asia,Camarines Norte,Larap,14.298889,122.650278,1
2.02E+11,2017,2,12,Philippines,Southeast Asia,Iloilo,Cagamutan Sur,10.789048,122.590448,0
2.02E+11,2017,12,13,Philippines,Southeast Asia,Zamboanga Sibugay,Sanito,7.799757,122.586738,1
2.02E+11,2017,2,8,Philippines,Southeast Asia,Quezon,Casay,13.29127,122.54445,0
2.02E+11,2017,12,13,Philippines,Southeast Asia,Quezon,Inabuan,13.329722,122.53,2
2.02E+11,2017,9,6,Philippines,Southeast Asia,Zamboanga del Norte,Labason,8.066727,122.516607,-99
2.02E+11,2017,10,3,Philippines,Southeast Asia,Negros Occidental,Caliling,9.979697,122.482514,0
2.02E+11,2017,10,6,Philippines,Southeast Asia,Iloilo,Pangilihan,11.025189,122.441258,0
2.02E+11,2017,11,24,Philippines,Southeast Asia,Iloilo,Maasin,10.893,122.434998,1
2.02E+11,2017,6,18,Philippines,Southeast Asia,Iloilo,Maasin district,10.88,122.43,0
2.02E+11,2017,6,21,Philippines,Southeast Asia,Camarines Norte,Dumagmang,14.137428,122.411233,1
2.02E+11,2017,2,7,Philippines,Southeast Asia,Capiz,Tacayan,11.287818,122.405893,1
2.02E+11,2017,1,3,Philippines,Southeast Asia,Basilan,Unknown,6.741797,122.398145,0
2.02E+11,2017,6,20,Philippines,Southeast Asia,Iloilo,Lampaya,10.780315,122.387872,1
2.02E+11,2017,11,12,Philippines,Southeast Asia,Iloilo,Bolo,10.92993,122.387862,0
2.02E+11,2017,6,24,Philippines,Southeast Asia,Iloilo,Bagumbayan,10.690601,122.387355,0
2.02E+11,2017,6,18,Philippines,Southeast Asia,Quezon,Ajos,13.545925,122.372556,0
2.02E+11,2017,5,2,Philippines,Southeast Asia,Aklan,Daguitan,11.632817,122.339541,0
2.02E+11,2017,2,21,Philippines,Southeast Asia,Quezon,Catanauan,13.595181,122.323047,0
2.02E+11,2017,3,23,Philippines,Southeast Asia,Basilan,Basakan,6.644703,122.299491,0
2.02E+11,2017,10,28,Philippines,Southeast Asia,Zamboanga Sibugay,Lower Tungawan,7.52247,122.288745,0
2.02E+11,2017,1,9,Philippines,Southeast Asia,Zamboanga Sibugay,Unknown,7.131007,122.268829,8
2.02E+11,2017,5,4,Philippines,Southeast Asia,Iloilo,Igtuble,10.824449,122.267812,1
2.02E+11,2017,4,30,Philippines,Southeast Asia,Iloilo,Igtalunon,10.716667,122.266667,0
2.02E+11,2017,2,4,Philippines,Southeast Asia,Basilan,Dugaa,6.611512,122.263054,0
2.02E+11,2017,2,4,Philippines,Southeast Asia,Basilan,Dugaa,6.611512,122.263054,0
2.02E+11,2017,3,19,Philippines,Southeast Asia,Basilan,Dugaa,6.611512,122.263054,1
2.02E+11,2017,2,14,Philippines,Southeast Asia,Zamboanga Sibugay,Buenavista,7.237076,122.254793,0
2.02E+11,2017,7,15,Philippines,Southeast Asia,Quezon,Tan-ag Ibaba,13.883333,122.25,0
2.02E+11,2017,8,29,Philippines,Southeast Asia,Iloilo,Pasi,10.788004,122.233983,0
2.02E+11,2017,5,1,Philippines,Southeast Asia,Iloilo,Igcabugao,10.751114,122.223519,0
2.02E+11,2017,6,18,Philippines,Southeast Asia,Quezon,Tuhian,13.6222,122.2178,0
2.02E+11,2017,11,14,Philippines,Southeast Asia,Iloilo,Agdum,10.718053,122.201564,0
2.02E+11,2017,7,16,Philippines,Southeast Asia,Quezon,Hagakhakin,13.907845,122.183119,0
2.02E+11,2017,1,15,Philippines,Southeast Asia,Basilan,Sabong,6.588132,122.178193,1
2.02E+11,2017,1,29,Philippines,Southeast Asia,Basilan,Danapah,6.493148,122.165911,2
2.02E+11,2017,2,28,Philippines,Southeast Asia,Zamboanga del Norte,Saint Mary,7.592439,122.154825,1
2.02E+11,2017,11,7,Philippines,Southeast Asia,Basilan,Kulay Bato,6.664973,122.154736,0
2.02E+11,2017,12,18,Philippines,Southeast Asia,Basilan,Kulaybato,6.664973,122.154736,0
2.02E+11,2017,12,18,Philippines,Southeast Asia,Basilan,Badja,6.553941,122.154736,1
2.02E+11,2017,5,25,Philippines,Southeast Asia,Basilan,Guinanta,6.491515,122.141717,2
2.02E+11,2017,1,28,Philippines,Southeast Asia,Basilan,Lamitan,6.660501,122.138992,0
2.02E+11,2017,1,28,Philippines,Southeast Asia,Basilan,Lamitan,6.660501,122.138992,0
2.02E+11,2017,3,9,Philippines,Southeast Asia,Basilan,Lamitan,6.660501,122.138992,0
2.02E+11,2017,3,9,Philippines,Southeast Asia,Basilan,Lamitan,6.660501,122.138992,0
2.02E+11,2017,3,19,Philippines,Southeast Asia,Basilan,Lamitan,6.660501,122.138992,0
2.02E+11,2017,5,30,Philippines,Southeast Asia,Zamboanga del Norte,Siocon,7.706753,122.138522,1
2.02E+11,2017,2,2,Philippines,Southeast Asia,Basilan,Limook,6.652975,122.135651,0
2.02E+11,2017,5,10,Philippines,Southeast Asia,Basilan,Lamitan,6.649968,122.133342,0
2.02E+11,2017,4,18,Philippines,Southeast Asia,Zamboanga del Norte,Siocon,7.70325,122.132102,0
2.02E+11,2017,5,24,Philippines,Southeast Asia,Zamboanga del Norte,Malambuhangin,7.624903,122.127887,0
2.02E+11,2017,5,12,Philippines,Southeast Asia,Isabela,Casala,16.885565,122.126684,0
2.02E+11,2017,3,3,Philippines,Southeast Asia,Zamboanga del Norte,Santa Maria,7.757916,122.125261,-99
2.02E+11,2017,8,3,Philippines,Southeast Asia,Basilan,Bohe Baas,6.661519,122.106467,0
2.02E+11,2017,11,21,Philippines,Southeast Asia,Antique,Bulalacao,10.747932,122.103989,0
2.02E+11,2017,11,9,Philippines,Southeast Asia,Basilan,Cabengbeng,6.440039,122.080475,6
2.02E+11,2017,9,26,Philippines,Southeast Asia,Zamboanga Sibugay,Zamboanga City,6.929089,122.07885,1
2.02E+11,2017,5,3,Philippines,Southeast Asia,Iloilo,Pitogo,10.580451,122.065048,0
2.02E+11,2017,11,22,Philippines,Southeast Asia,Antique,Sibalom district,10.765019,122.061017,0
2.02E+11,2017,7,29,Philippines,Southeast Asia,Basilan,Unknown,6.578069,122.041484,0
2.02E+11,2017,3,27,Philippines,Southeast Asia,Basilan,Tumahubong,6.472241,122.040186,0
2.02E+11,2017,7,26,Philippines,Southeast Asia,Basilan,Dugaain,6.578187,122.031469,1
2.02E+11,2017,10,21,Philippines,Southeast Asia,Basilan,Unknown,6.570558,122.029527,1
2.02E+11,2017,8,28,Philippines,Southeast Asia,Isabela,Cadsalan,16.780833,122.024444,2
2.02E+11,2017,5,7,Philippines,Southeast Asia,Isabela,Tappa,16.983334,122.01667,0
2.02E+11,2017,11,3,Philippines,Southeast Asia,Basilan,Kaumpamatsaken,6.537222,122.008611,2
2.02E+11,2017,6,15,Philippines,Southeast Asia,Basilan,Lanate Bliss,6.687595,121.981334,0
2.02E+11,2017,9,28,Philippines,Southeast Asia,Basilan,Sumagdang,6.688284,121.950077,0
2.02E+11,2017,11,10,Philippines,Southeast Asia,Basilan,Libug,6.451944,121.947778,2
2.02E+11,2017,12,2,Philippines,Southeast Asia,Cagayan,Awallan,17.95476,121.927803,1
2.02E+11,2017,7,10,Philippines,Southeast Asia,Basilan,Makiri,6.652801,121.925547,1
2.02E+11,2017,10,7,Philippines,Southeast Asia,Cagayan,Dungeg,18.213753,121.923767,0
2.02E+11,2017,5,18,Philippines,Southeast Asia,Isabela,San Miguel,16.57755,121.911829,0
2.02E+11,2017,8,21,Philippines,Southeast Asia,Basilan,Upper Mahayahay,6.529908,121.910195,1
2.02E+11,2017,8,21,Philippines,Southeast Asia,Basilan,Tubigan,6.516151,121.910015,5
2.02E+11,2017,8,21,Philippines,Southeast Asia,Basilan,Tubigan,6.516151,121.910015,4
2.02E+11,2017,7,20,Philippines,Southeast Asia,Basilan,Switch Yakal,6.596997,121.907486,5
2.02E+11,2017,7,26,Philippines,Southeast Asia,Basilan,Maluso,6.549955,121.883153,1
2.02E+11,2017,7,20,Philippines,Southeast Asia,Basilan,Maluso,6.539852,121.872945,2
2.02E+11,2017,6,25,Philippines,Southeast Asia,Cagayan,San Jose,17.88994,121.870264,0
2.02E+11,2017,6,26,Philippines,Southeast Asia,Cagayan,San Carlos,18.03649,121.84163,0
2.02E+11,2017,10,7,Philippines,Southeast Asia,Cagayan,Villa Cielo,18.220096,121.827532,0
2.02E+11,2017,10,7,Philippines,Southeast Asia,Cagayan,Tabbac,18.238203,121.804423,0
2.02E+11,2017,1,29,Philippines,Southeast Asia,Isabela,Guminga,17.461508,121.794348,1
2.02E+11,2017,7,3,Philippines,Southeast Asia,Quirino,Maddela district,16.332553,121.787924,0
2.02E+11,2017,3,27,Philippines,Southeast Asia,Quirino,Ysmael,16.289944,121.765294,0
2.02E+11,2017,10,4,Philippines,Southeast Asia,Cagayan,Carig,17.655964,121.752737,1
2.02E+11,2017,7,24,Philippines,Southeast Asia,Quezon,Cagsiay Two,14.216667,121.75,1
2.02E+11,2017,9,15,Philippines,Southeast Asia,Cagayan,Tuguegarao,17.610807,121.73237,1
2.02E+11,2017,1,30,Philippines,Southeast Asia,Isabela,Echague district,16.670273,121.717215,2
2.02E+11,2017,5,19,Philippines,Southeast Asia,Isabela,Cradal,16.670136,121.717106,0
2.02E+11,2017,3,26,Philippines,Southeast Asia,Cagayan,Baybayog,17.892728,121.691519,0
2.02E+11,2017,7,11,Philippines,Southeast Asia,Quirino,Sangbay,16.255919,121.685341,0
2.02E+11,2017,4,29,Philippines,Southeast Asia,Quirino,Maddela,16.339782,121.682125,1
2.02E+11,2017,5,4,Philippines,Southeast Asia,Cagayan,Annafatan,17.801519,121.664848,0
2.02E+11,2017,7,14,Philippines,Southeast Asia,Quirino,Diduyon,16.314876,121.659681,0
2.02E+11,2017,9,24,Philippines,Southeast Asia,Isabela,San Antonio,17.058685,121.616074,1
2.02E+11,2017,7,4,Philippines,Southeast Asia,Isabela,Victoria,17.197277,121.61091,1
2.02E+11,2017,7,23,Philippines,Southeast Asia,Laguna,San Antonio,14.34251,121.576957,0
2.02E+11,2017,5,17,Philippines,Southeast Asia,Quezon,Lucban district,14.15551,121.566027,0
2.02E+11,2017,4,29,Philippines,Southeast Asia,Quirino,Unknown,16.270042,121.537,0
2.02E+11,2017,5,14,Philippines,Southeast Asia,Quezon,Kalyaat,14.150733,121.53574,0
2.02E+11,2017,7,27,Philippines,Southeast Asia,Laguna,Luisiana,14.184052,121.516664,0
2.02E+11,2017,8,18,Taiwan,East Asia,Taipei,Taipei,25.040132,121.511301,0
2.02E+11,2017,3,28,Philippines,Southeast Asia,Quirino,Cabarroguis district,16.422119,121.509998,1
2.02E+11,2017,5,17,Philippines,Southeast Asia,Laguna,San Antonio,14.198272,121.501047,0
2.02E+11,2017,5,14,Philippines,Southeast Asia,Laguna,Piit,14.149444,121.493611,0
2.02E+11,2017,2,8,Philippines,Southeast Asia,Cagayan,Lipatan,17.856944,121.4925,1
2.02E+11,2017,9,22,Philippines,Southeast Asia,Oriental Mindoro,Roxas district,12.598719,121.483554,1
2.02E+11,2017,10,10,Philippines,Southeast Asia,Kalinga,Tabuk,17.415977,121.4413,0
2.02E+11,2017,6,10,Philippines,Southeast Asia,Batangas,Poblacion,13.82895,121.39421,1
2.02E+11,2017,1,6,Philippines,Southeast Asia,Batangas,San Juan district,13.750444,121.377034,1
2.02E+11,2017,3,31,Philippines,Southeast Asia,Kalinga,Pinukpuk district,17.577467,121.368927,0
2.02E+11,2017,9,1,Philippines,Southeast Asia,Nueva Vizcaya,Dine,16.368395,121.355567,4
2.02E+11,2017,12,3,Philippines,Southeast Asia,Quezon,Lalig,13.985557,121.328429,1
2.02E+11,2017,3,30,Philippines,Southeast Asia,Oriental Mindoro,Benli,12.401442,121.327466,6
2.02E+11,2017,9,15,Philippines,Southeast Asia,Oriental Mindoro,Benli,12.418418,121.285525,2
2.02E+11,2017,8,3,Indonesia,Southeast Asia,Central Sulawesi,Lobu,0.559,121.211122,1
2.02E+11,2017,5,10,Philippines,Southeast Asia,Rizal,San Jose,14.585414,121.207789,2
2.02E+11,2017,1,13,Philippines,Southeast Asia,Batangas,Santo Thomas,14.090019,121.175173,1
2.02E+11,2017,8,30,Philippines,Southeast Asia,Batangas,Tinurik,14.064876,121.123603,2
2.02E+11,2017,12,24,Philippines,Southeast Asia,Sulu,Patikul,6.088221,121.109329,0
2.02E+11,2017,3,10,Philippines,Southeast Asia,Sulu,Unknown,5.996383,121.107944,-99
2.02E+11,2017,4,6,Philippines,Southeast Asia,Nueva Vizcaya,Calaocan,16.391184,121.107312,1
2.02E+11,2017,4,20,Philippines,Southeast Asia,Sulu,Patikul district,6.063022,121.102294,1
2.02E+11,2017,11,14,Philippines,Southeast Asia,Sulu,Kalimayahan,6.063022,121.102294,0
2.02E+11,2017,2,27,Philippines,Southeast Asia,Batangas,Lumanag Lipa,13.978595,121.087967,1
2.02E+11,2017,1,9,Philippines,Southeast Asia,Metropolitan Manila,Pasig City,14.58251,121.084236,1
2.02E+11,2017,10,19,Philippines,Southeast Asia,Laguna,San Jose,14.34479,121.08238,1
2.02E+11,2017,7,4,Philippines,Southeast Asia,Batangas,Pinagtongulan,13.917682,121.082236,0
2.02E+11,2017,10,4,Philippines,Southeast Asia,Laguna,Binan,14.33,121.08,1
2.02E+11,2017,12,22,Philippines,Southeast Asia,Laguna,Binan district,14.30371,121.078309,0
2.02E+11,2017,5,30,Philippines,Southeast Asia,Sulu,Unknown,5.965086,121.070701,1
2.02E+11,2017,9,30,Philippines,Southeast Asia,Batangas,Banadero,14.083779,121.069898,1
2.02E+11,2017,3,30,Philippines,Southeast Asia,Metropolitan Manila,Quezon City,14.67428,121.057495,0
2.02E+11,2017,6,14,Philippines,Southeast Asia,Metropolitan Manila,Quezon City,14.67428,121.057495,1
2.02E+11,2017,6,20,Philippines,Southeast Asia,Metropolitan Manila,Quezon City,14.67428,121.057495,1
2.02E+11,2017,3,19,Philippines,Southeast Asia,Batangas,Santa Clara,13.757368,121.043512,2
2.02E+11,2017,9,2,Philippines,Southeast Asia,Sulu,Latih,6.026667,121.041667,1
2.02E+11,2017,4,29,Philippines,Southeast Asia,Sulu,Bangkal,6.055578,121.039629,0
2.02E+11,2017,9,3,Philippines,Southeast Asia,Metropolitan Manila,Mandaluyong,14.584232,121.03904,1
2.02E+11,2017,10,9,Philippines,Southeast Asia,Metropolitan Manila,Mandaluyong,14.584232,121.03904,1
2.02E+11,2017,8,3,Philippines,Southeast Asia,Metropolitan Manila,San Juan,14.602955,121.033813,2
2.02E+11,2017,2,21,Philippines,Southeast Asia,Metropolitan Manila,Makati City,14.549431,121.033592,1
2.02E+11,2017,5,13,Philippines,Southeast Asia,Sulu,Kan-Dayok,5.974901,121.03351,3
2.02E+11,2017,5,22,Philippines,Southeast Asia,Metropolitan Manila,Caloocan,14.724493,121.03331,1
2.02E+11,2017,7,28,Philippines,Southeast Asia,Metropolitan Manila,Caloocan,14.724493,121.03331,0
2.02E+11,2017,3,10,Philippines,Southeast Asia,Sulu,Maimbung,5.933405,121.033258,0
2.02E+11,2017,8,26,Philippines,Southeast Asia,Metropolitan Manila,Muntinlupa,14.401977,121.032784,1
2.02E+11,2017,7,15,Philippines,Southeast Asia,Sulu,Kawmpang,6.048709,121.029146,0
2.02E+11,2017,1,13,Philippines,Southeast Asia,Sulu,Jolo,6.050458,121.012245,0
2.02E+11,2017,3,13,Philippines,Southeast Asia,Abra,Poblacion,17.582784,121.005421,0
2.02E+11,2017,6,23,Philippines,Southeast Asia,Metropolitan Manila,Pasay,14.530948,121.004257,0
2.02E+11,2017,12,23,Philippines,Southeast Asia,Metropolitan Manila,Pasay,14.530948,121.004257,0
2.02E+11,2017,6,6,Philippines,Southeast Asia,Sulu,Jolo,6.051232,120.999851,0
2.02E+11,2017,9,27,Philippines,Southeast Asia,Sulu,Tagbak,6.016509,120.992552,0
2.02E+11,2017,4,18,Philippines,Southeast Asia,Metropolitan Manila,Manila,14.599352,120.984772,2
2.02E+11,2017,4,28,Philippines,Southeast Asia,Metropolitan Manila,Manila,14.599352,120.984772,0
2.02E+11,2017,5,6,Philippines,Southeast Asia,Metropolitan Manila,Manila,14.599352,120.984772,2
2.02E+11,2017,5,6,Philippines,Southeast Asia,Metropolitan Manila,Manila,14.599352,120.984772,0
2.02E+11,2017,6,20,Philippines,Southeast Asia,Metropolitan Manila,Manila,14.599352,120.984772,1
2.02E+11,2017,6,21,Philippines,Southeast Asia,Metropolitan Manila,Manila,14.599352,120.984772,0
2.02E+11,2017,6,26,Philippines,Southeast Asia,Metropolitan Manila,Manila,14.599352,120.984772,1
2.02E+11,2017,3,12,Philippines,Southeast Asia,Abra,Malibcong,17.568938,120.9834,0
2.02E+11,2017,4,2,Philippines,Southeast Asia,Mountain Province,Bontoc,17.091122,120.978527,1
2.02E+11,2017,11,22,Philippines,Southeast Asia,Nueva Ecija,Putlan,16.034761,120.95895,1
2.02E+11,2017,10,3,Philippines,Southeast Asia,Oriental Mindoro,Tabinay,13.487805,120.957922,2
2.02E+11,2017,11,1,Philippines,Southeast Asia,Occidental Mindoro,Malawaan,12.531642,120.953223,0
2.02E+11,2017,12,5,Philippines,Southeast Asia,Sulu,Langpas,5.97314,120.950344,3
2.02E+11,2017,11,25,Philippines,Southeast Asia,Metropolitan Manila,Navotas,14.663473,120.943977,1
2.02E+11,2017,7,28,Philippines,Southeast Asia,Pampanga,Malipangpang,15.052222,120.938056,1
2.02E+11,2017,5,17,Philippines,Southeast Asia,Bulacan,Tanawan,14.956971,120.926613,1
2.02E+11,2017,12,1,Philippines,Southeast Asia,Nueva Ecija,Mambarao,15.60212,120.908126,0
2.02E+11,2017,3,14,Philippines,Southeast Asia,Nueva Ecija,San Fabian,15.592462,120.904995,1
2.02E+11,2017,12,4,Philippines,Southeast Asia,Nueva Ecija,Jaen district,15.362739,120.883802,1
2.02E+11,2017,3,13,Philippines,Southeast Asia,Bulacan,Buluwalto,14.816326,120.866163,0
2.02E+11,2017,10,10,Philippines,Southeast Asia,Mountain Province,Bauko district,16.982354,120.863486,0
2.02E+11,2017,1,28,Philippines,Southeast Asia,Cavite,Daang Amaya,14.390117,120.856354,1
2.02E+11,2017,5,16,Philippines,Southeast Asia,Benguet,Loo,16.791487,120.830925,0
2.02E+11,2017,11,27,Philippines,Southeast Asia,Abra,Ud-udiao,17.471099,120.824417,0
2.02E+11,2017,6,7,Philippines,Southeast Asia,Benguet,Colalo,16.9146,120.765421,0
2.02E+11,2017,7,29,Philippines,Southeast Asia,Pangasinan,San Nicolas,16.070245,120.765416,1
2.02E+11,2017,1,10,Philippines,Southeast Asia,Pangasinan,Calaocan,16.070387,120.764955,1
2.02E+11,2017,6,7,Philippines,Southeast Asia,Benguet,Cabiten,16.8968,120.7634,0
2.02E+11,2017,6,7,Philippines,Southeast Asia,Benguet,Colalo,16.9192,120.7623,0
2.02E+11,2017,7,31,Philippines,Southeast Asia,Nueva Ecija,Pasong Intsik,15.666245,120.743049,1
2.02E+11,2017,9,2,Philippines,Southeast Asia,Batangas,Baha,13.871901,120.709128,1
2.02E+11,2017,10,10,Philippines,Southeast Asia,Ilocos Sur,Patungcaleo,17.130073,120.699683,0
2.02E+11,2017,10,15,Philippines,Southeast Asia,Ilocos Sur,Quirino district,17.102177,120.684266,1
2.02E+11,2017,2,9,Philippines,Southeast Asia,Benguet,Itogon,16.360271,120.677149,0
2.02E+11,2017,7,30,Philippines,Southeast Asia,Nueva Ecija,Cabaducan West,15.737871,120.637966,0
2.02E+11,2017,3,30,Philippines,Southeast Asia,Abra,Patucannay,17.606506,120.630804,1
2.02E+11,2017,2,1,Philippines,Southeast Asia,Batangas,Bulihan,14.163709,120.629633,0
2.02E+11,2017,1,21,Philippines,Southeast Asia,Ilocos Sur,Mabileg,17.081516,120.6083,0
2.02E+11,2017,1,21,Philippines,Southeast Asia,Ilocos Sur,Mabileg,17.081516,120.6083,0
2.02E+11,2017,1,29,Philippines,Southeast Asia,Batangas,Payapa,14.192103,120.59982,0
2.02E+11,2017,4,3,Philippines,Southeast Asia,Tarlac,Cut-Cut,15.326617,120.58956,1
2.02E+11,2017,10,14,Philippines,Southeast Asia,Sulu,Simbahan,6.301814,120.583623,0
2.02E+11,2017,12,20,Philippines,Southeast Asia,Bataan,Unknown,14.641684,120.481845,-99
2.02E+11,2017,9,24,Philippines,Southeast Asia,Bataan,Mariveles,14.43,120.48,2
2.02E+11,2017,3,28,Philippines,Southeast Asia,Ilocos Sur,Calaoan,17.080789,120.450563,0
2.02E+11,2017,1,12,Philippines,Southeast Asia,Pangasinan,Dusoc,15.774301,120.439158,1
2.02E+11,2017,2,20,Philippines,Southeast Asia,Pangasinan,Banaoang,15.993004,120.431352,1
2.02E+11,2017,1,7,Philippines,Southeast Asia,Ilocos Sur,San Ramon,17.68098,120.42448,1
2.02E+11,2017,9,4,Philippines,Southeast Asia,Zambales,Faranal,15.071862,120.076634,0
2.02E+11,2017,7,21,Philippines,Southeast Asia,Tawi-Tawi,Gracepan,5.205948,120.053982,0
2.02E+11,2017,6,26,Philippines,Southeast Asia,Zambales,Taugtog,15.3047,120.0417,0
2.02E+11,2017,11,28,Philippines,Southeast Asia,Pangasinan,Victoria,16.109591,120.028956,1
2.02E+11,2017,6,26,Philippines,Southeast Asia,Zambales,Botolan district,15.28,120.02,0
2.02E+11,2017,4,9,Philippines,Southeast Asia,Pangasinan,Bani,16.18694,119.85917,1
2.02E+11,2017,9,30,Philippines,Southeast Asia,Palawan,New Agutaya,10.562839,119.302007,0
2.02E+11,2017,7,19,Philippines,Southeast Asia,Palawan,Magara,10.246463,119.214643,2
2.02E+11,2017,12,7,Philippines,Southeast Asia,Palawan,Unknown,9.834949,118.738362,1
2.02E+11,2017,9,11,Indonesia,Southeast Asia,West Nusa Tenggara,Bima,-8.455218,118.727934,0
2.02E+11,2017,9,11,Indonesia,Southeast Asia,West Nusa Tenggara,Bima,-8.454439,118.724642,0
2.02E+11,2017,6,20,Philippines,Southeast Asia,Palawan,Unknown,9.691078,118.577846,0
2.02E+11,2017,2,19,Philippines,Southeast Asia,Tawi-Tawi,Baguan,6.102634,118.446977,4
2.02E+11,2017,5,22,Philippines,Southeast Asia,Palawan,Narra,9.267399,118.404231,1
2.02E+11,2017,1,19,Philippines,Southeast Asia,Tawi-Tawi,Unknown,6.078236,118.314049,-99
2.02E+11,2017,3,5,Philippines,Southeast Asia,Tawi-Tawi,Unknown,6.288716,118.110315,0
2.02E+11,2017,4,14,Philippines,Southeast Asia,Palawan,Barong Barong,8.834771,117.878516,1
2.02E+11,2017,6,15,China,East Asia,Jiangsu,Fengxian,33.768378,117.786578,8
2.02E+11,2017,7,21,Philippines,Southeast Asia,Palawan,Mahilud,8.672499,117.559443,2
2.02E+11,2017,7,18,Philippines,Southeast Asia,Palawan,Tarusan,8.656259,117.510498,0
2.02E+11,2017,3,8,Philippines,Southeast Asia,Palawan,Culandanum,8.628203,117.451236,0
2.02E+11,2017,10,2,China,East Asia,Hong Kong,Tung Chung,22.281977,113.936547,0
2.02E+11,2017,10,2,China,East Asia,Hong Kong,Tung Chung,22.281662,113.936252,0
2.02E+11,2017,1,18,China,East Asia,Guangdong,Foshan,23.028956,113.143441,0
2.02E+11,2017,1,18,China,East Asia,Guangdong,Foshan,23.028956,113.143441,0
2.02E+11,2017,12,11,Indonesia,Southeast Asia,East Java,Surabaya,-7.2215,112.732927,0
2.02E+11,2017,4,8,Indonesia,Southeast Asia,East Java,Tuban district,-6.984746,111.952249,6
2.02E+11,2017,4,13,Indonesia,Southeast Asia,Central Java,Ambarawa,-7.26024,110.396835,0
2.02E+11,2017,4,11,Indonesia,Southeast Asia,Central Java,Banyumas,-7.514167,109.294167,0
2.02E+11,2017,7,5,Indonesia,Southeast Asia,Central Java,Sidareja,-7.484817,108.7834,0
2.02E+11,2017,2,27,Indonesia,Southeast Asia,West Java,Bandung,-6.909219,107.593381,1
2.02E+11,2017,4,11,Indonesia,Southeast Asia,Jakarta,Jakarta,-6.132423,106.874438,0
2.02E+11,2017,5,24,Indonesia,Southeast Asia,Jakarta,Jakarta,-6.229956,106.866515,3
2.02E+11,2017,5,24,Indonesia,Southeast Asia,Jakarta,Jakarta,-6.229956,106.866515,2
2.02E+11,2017,4,8,Vietnam,Southeast Asia,Dong Nai,Bien Hoa,10.957413,106.842687,0
2.02E+11,2017,9,3,Indonesia,Southeast Asia,Jakarta,Jakarta,-6.194019,106.825309,0
2.02E+11,2017,6,30,Indonesia,Southeast Asia,Jakarta,Jakarta,-6.241655,106.800505,1
2.02E+11,2017,4,22,Vietnam,Southeast Asia,Ho Chi Minh City,Ho Chi Minh City,10.818889,106.651944,0
2.02E+11,2017,5,31,Russia,Eastern Europe,Irkutsk,Irkutsk,52.286974,104.305018,0
2.02E+11,2017,6,16,Laos,Southeast Asia,Xaisomboun,Unknown,18.923275,103.102289,1
2.02E+11,2017,10,15,Thailand,Southeast Asia,Narathiwat,Ban Taba,6.237554,102.082001,1
2.02E+11,2017,10,15,Thailand,Southeast Asia,Narathiwat,Tak Bai district,6.244433,102.069434,0
2.02E+11,2017,4,7,Thailand,Southeast Asia,Narathiwat,Che He,6.253722,102.061687,0
2.02E+11,2017,4,7,Thailand,Southeast Asia,Narathiwat,Che He,6.253722,102.061687,0
2.02E+11,2017,4,7,Thailand,Southeast Asia,Narathiwat,Na Nak,6.157846,102.060042,0
2.02E+11,2017,5,5,Thailand,Southeast Asia,Narathiwat,Tor Yamu,6.158143,102.059608,0
2.02E+11,2017,4,19,Thailand,Southeast Asia,Narathiwat,Tak Bai district,6.259167,102.053056,0
2.02E+11,2017,4,19,Thailand,Southeast Asia,Narathiwat,Tak Bai district,6.259167,102.053056,0
2.02E+11,2017,2,25,Thailand,Southeast Asia,Narathiwat,Tak Bai district,6.247924,102.003296,0
2.02E+11,2017,4,19,Thailand,Southeast Asia,Narathiwat,Tak Bai district,6.249341,102.00282,0
2.02E+11,2017,6,2,Thailand,Southeast Asia,Narathiwat,Tak Bai district,6.249341,102.00282,0
2.02E+11,2017,6,2,Thailand,Southeast Asia,Narathiwat,Tak Bai district,6.249341,102.00282,0
2.02E+11,2017,8,1,Thailand,Southeast Asia,Narathiwat,Kampung Puyu,6.245407,101.997928,0
2.02E+11,2017,6,23,Thailand,Southeast Asia,Narathiwat,Ban Lubohsama,6.057982,101.986001,0
2.02E+11,2017,6,30,Thailand,Southeast Asia,Narathiwat,Pase Mat,6.033436,101.977419,1
2.02E+11,2017,4,7,Thailand,Southeast Asia,Narathiwat,Pase Mas,6.015119,101.951925,0
2.02E+11,2017,4,7,Thailand,Southeast Asia,Narathiwat,Pase Mas,6.015119,101.951925,0
2.02E+11,2017,7,15,Thailand,Southeast Asia,Narathiwat,Sungai Kolok,6.013915,101.950233,0
2.02E+11,2017,8,1,Thailand,Southeast Asia,Narathiwat,Sungai Kolok,6.013915,101.950233,0
2.02E+11,2017,4,7,Thailand,Southeast Asia,Narathiwat,Kayu Khla,5.97185,101.923607,0
2.02E+11,2017,4,7,Thailand,Southeast Asia,Narathiwat,Kayu Khla,5.97185,101.923607,0
2.02E+11,2017,4,7,Thailand,Southeast Asia,Narathiwat,Kayu Khla,5.97185,101.923607,0
2.02E+11,2017,4,7,Thailand,Southeast Asia,Narathiwat,Kayu Khla,5.97185,101.923607,0
2.02E+11,2017,8,4,Thailand,Southeast Asia,Narathiwat,Ban Bang Prao,6.146342,101.912079,0
2.02E+11,2017,9,13,Thailand,Southeast Asia,Narathiwat,Paluru,6.074705,101.904816,0
2.02E+11,2017,10,19,Thailand,Southeast Asia,Narathiwat,Paluru,6.074641,101.90417,0
2.02E+11,2017,2,26,Thailand,Southeast Asia,Narathiwat,Paluru,6.073372,101.900579,0
2.02E+11,2017,4,19,Thailand,Southeast Asia,Narathiwat,Waeng,5.927822,101.884807,0
2.02E+11,2017,4,19,Thailand,Southeast Asia,Narathiwat,Waeng district,5.927822,101.884807,0
2.02E+11,2017,4,19,Thailand,Southeast Asia,Narathiwat,Waeng district,5.927822,101.884807,0
2.02E+11,2017,6,16,Thailand,Southeast Asia,Narathiwat,Waeng district,5.928708,101.883468,1
2.02E+11,2017,10,18,Thailand,Southeast Asia,Narathiwat,Sungai Padi district,6.070845,101.881727,0
2.02E+11,2017,4,19,Thailand,Southeast Asia,Narathiwat,Sungai Padi district,6.085143,101.879204,0
2.02E+11,2017,4,7,Thailand,Southeast Asia,Narathiwat,Paluru,6.085224,101.879166,0
2.02E+11,2017,12,25,Thailand,Southeast Asia,Narathiwat,Sungai Padi district,6.085441,101.877063,0
2.02E+11,2017,4,7,Thailand,Southeast Asia,Narathiwat,Todeng,6.117556,101.85907,0
2.02E+11,2017,11,20,Thailand,Southeast Asia,Narathiwat,Todeng,6.117556,101.85907,0
2.02E+11,2017,12,25,Thailand,Southeast Asia,Narathiwat,Toteng,6.117556,101.85907,0
2.02E+11,2017,10,22,Thailand,Southeast Asia,Narathiwat,Chuap,6.253181,101.82521,1
2.02E+11,2017,4,7,Thailand,Southeast Asia,Narathiwat,Cho-airong district,6.210408,101.820757,0
2.02E+11,2017,4,7,Thailand,Southeast Asia,Narathiwat,Cho-airong district,6.210408,101.820757,0
2.02E+11,2017,11,30,Thailand,Southeast Asia,Narathiwat,Chuap,6.241925,101.809358,0
2.02E+11,2017,4,7,Thailand,Southeast Asia,Narathiwat,Lamphu,6.382026,101.805247,0
2.02E+11,2017,4,7,Thailand,Southeast Asia,Narathiwat,Lamphu,6.382026,101.805247,0
2.02E+11,2017,9,25,Thailand,Southeast Asia,Narathiwat,Ban Namsai,5.968889,101.754722,0
2.02E+11,2017,3,3,Thailand,Southeast Asia,Narathiwat,Sukhirin district,5.90016,101.752385,0
2.02E+11,2017,8,19,Thailand,Southeast Asia,Narathiwat,Motako,6.128787,101.73506,0
2.02E+11,2017,4,27,Thailand,Southeast Asia,Narathiwat,Ringae,6.129658,101.734647,6
2.02E+11,2017,3,30,Thailand,Southeast Asia,Narathiwat,Rom Sai,6.00295,101.730317,0
2.02E+11,2017,3,30,Thailand,Southeast Asia,Narathiwat,Rangae district,6.254148,101.729605,1
2.02E+11,2017,8,29,Thailand,Southeast Asia,Narathiwat,Tanyong,6.29653,101.729097,0
2.02E+11,2017,1,5,Malaysia,Southeast Asia,Selangor,Seri Kembangan,3.015301,101.712396,4
2.02E+11,2017,4,19,Thailand,Southeast Asia,Narathiwat,Tanyongmat,6.291619,101.710486,0
2.02E+11,2017,2,10,Thailand,Southeast Asia,Narathiwat,Yingo,6.404138,101.705474,2
2.02E+11,2017,4,19,Thailand,Southeast Asia,Narathiwat,Yingo district,6.385287,101.701136,0
2.02E+11,2017,4,19,Thailand,Southeast Asia,Narathiwat,Poryoh,6.385287,101.701136,0
2.02E+11,2017,4,19,Thailand,Southeast Asia,Narathiwat,Bango Sato,6.271301,101.697074,0
2.02E+11,2017,4,7,Thailand,Southeast Asia,Narathiwat,Lubo Buesa,6.425508,101.696141,0
2.02E+11,2017,4,7,Thailand,Southeast Asia,Narathiwat,Lubo Buesa,6.425556,101.696107,0
2.02E+11,2017,4,7,Thailand,Southeast Asia,Narathiwat,Chanae district,6.098333,101.693333,0
2.02E+11,2017,11,16,Malaysia,Southeast Asia,Kuala Lumpur,Kuala Lumpur,3.138943,101.691315,0
2.02E+11,2017,4,7,Thailand,Southeast Asia,Narathiwat,Lubo Baya,6.425859,101.67306,0
2.02E+11,2017,4,8,Thailand,Southeast Asia,Narathiwat,Kayomati,6.550942,101.671859,0
2.02E+11,2017,4,8,Thailand,Southeast Asia,Narathiwat,Kayomati,6.550942,101.671859,0
2.02E+11,2017,2,11,Thailand,Southeast Asia,Narathiwat,Ruepo,6.15879,101.670437,0
2.02E+11,2017,8,9,Thailand,Southeast Asia,Narathiwat,Ban Rue Poh,6.158611,101.669722,0
2.02E+11,2017,8,9,Thailand,Southeast Asia,Narathiwat,Ban Rue Poh,6.158611,101.669722,0
2.02E+11,2017,10,9,Thailand,Southeast Asia,Narathiwat,Bacho district,6.517049,101.651538,1
2.02E+11,2017,12,6,Thailand,Southeast Asia,Narathiwat,Ban Yamu,6.141558,101.650723,0
2.02E+11,2017,4,7,Thailand,Southeast Asia,Narathiwat,Kayomati,6.547427,101.643762,0
2.02E+11,2017,5,2,Thailand,Southeast Asia,Narathiwat,Bacho district,6.548956,101.638533,0
2.02E+11,2017,8,1,Thailand,Southeast Asia,Pattani,Ban Binya,6.626108,101.636824,2
2.02E+11,2017,7,20,Thailand,Southeast Asia,Narathiwat,Tonsai,6.615869,101.628471,1
2.02E+11,2017,10,19,Thailand,Southeast Asia,Narathiwat,Chanae district,6.049511,101.619841,0
2.02E+11,2017,11,12,Indonesia,Southeast Asia,West Sumatra,Dharmasraya district,-1.112057,101.615777,2
2.02E+11,2017,2,13,Malaysia,Southeast Asia,Selangor,Petaling Jaya,3.1072,101.603592,-99
2.02E+11,2017,6,14,Thailand,Southeast Asia,Pattani,Mukim Peng,6.692635,101.595942,0
2.02E+11,2017,11,21,Malaysia,Southeast Asia,Selangor,Petaling Jaya,3.192995,101.592343,0
2.02E+11,2017,9,15,Thailand,Southeast Asia,Pattani,Thunkla,6.705487,101.58483,1
2.02E+11,2017,9,22,Thailand,Southeast Asia,Pattani,Cho Kueyae,6.681602,101.584113,4
2.02E+11,2017,12,26,Thailand,Southeast Asia,Narathiwat,Cheong Khiri,6.268579,101.582218,0
2.02E+11,2017,4,7,Thailand,Southeast Asia,Narathiwat,Samakkhi,6.428976,101.580432,0
2.02E+11,2017,4,7,Thailand,Southeast Asia,Narathiwat,Samakkhi,6.428976,101.580432,0
2.02E+11,2017,2,14,Thailand,Southeast Asia,Pattani,Bue Re,6.715779,101.56858,0
2.02E+11,2017,12,26,Thailand,Southeast Asia,Narathiwat,Choeng Khiri,6.256185,101.556637,1
2.02E+11,2017,5,23,Thailand,Southeast Asia,Narathiwat,Lao,6.152265,101.552327,0
2.02E+11,2017,4,19,Thailand,Southeast Asia,Pattani,Karubi,6.574589,101.544014,0
2.02E+11,2017,3,2,Thailand,Southeast Asia,Narathiwat,Rueso,6.39146,101.517296,4
2.02E+11,2017,4,7,Thailand,Southeast Asia,Narathiwat,Tamayung,6.297085,101.508241,0
2.02E+11,2017,12,28,Thailand,Southeast Asia,Narathiwat,Ban Sawor Hilae,6.435744,101.502134,0
2.02E+11,2017,4,19,Thailand,Southeast Asia,Narathiwat,Rueso district,6.384576,101.502075,0
2.02E+11,2017,7,26,Thailand,Southeast Asia,Narathiwat,Rueso district,6.384576,101.502075,0
2.02E+11,2017,4,19,Thailand,Southeast Asia,Narathiwat,Si Sakhon district,6.175784,101.502075,0
2.02E+11,2017,5,22,Thailand,Southeast Asia,Pattani,Khuan,6.758547,101.494838,1
2.02E+11,2017,4,7,Thailand,Southeast Asia,Narathiwat,Sawo,6.450843,101.48905,0
2.02E+11,2017,10,14,Thailand,Southeast Asia,Pattani,Ban Talo Bongae,6.620422,101.46762,1
2.02E+11,2017,6,12,Thailand,Southeast Asia,Pattani,Thung Yang Daeng district,6.632612,101.449396,2
2.02E+11,2017,6,19,Thailand,Southeast Asia,Pattani,Nam Dam,6.621376,101.433374,6
2.02E+11,2017,11,17,Thailand,Southeast Asia,Pattani,Thanon,6.73764,101.428188,0
2.02E+11,2017,7,9,Thailand,Southeast Asia,Pattani,Ban Kok Kor,6.681389,101.419444,0
2.02E+11,2017,6,12,Thailand,Southeast Asia,Pattani,Kerasak,6.719394,101.412681,1
2.02E+11,2017,3,2,Thailand,Southeast Asia,Pattani,Mayo district,6.722259,101.411205,3
2.02E+11,2017,3,2,Thailand,Southeast Asia,Pattani,Lubuk Jerai,6.722259,101.411205,1
2.02E+11,2017,8,17,Thailand,Southeast Asia,Pattani,Mayo district,6.718611,101.41,0
2.02E+11,2017,6,17,Thailand,Southeast Asia,Pattani,Tolang,6.828765,101.38755,3
2.02E+11,2017,2,10,Thailand,Southeast Asia,Pattani,Pato,6.822825,101.38284,1
2.02E+11,2017,12,25,Thailand,Southeast Asia,Yala,Aiyoeweng,5.927953,101.367907,0
2.02E+11,2017,4,7,Thailand,Southeast Asia,Yala,Aiyoeweng,5.930108,101.365781,0
2.02E+11,2017,4,7,Thailand,Southeast Asia,Pattani,Bang Pu,6.869696,101.353193,0
2.02E+11,2017,6,11,Thailand,Southeast Asia,Pattani,Bang Pu,6.865889,101.348779,1
2.02E+11,2017,3,6,Thailand,Southeast Asia,Yala,Buemang,6.421528,101.346475,1
2.02E+11,2017,4,19,Thailand,Southeast Asia,Pattani,Sakho Bon,6.740744,101.343927,0
2.02E+11,2017,4,19,Thailand,Southeast Asia,Pattani,Khao Tum,6.603948,101.33857,0
2.02E+11,2017,8,23,Thailand,Southeast Asia,Pattani,Khao Tum,6.603948,101.33857,0
2.02E+11,2017,11,21,Thailand,Southeast Asia,Yala,Taling Chan,6.309841,101.33633,1
2.02E+11,2017,2,24,Thailand,Southeast Asia,Pattani,Nong Hoi,6.761831,101.323255,0
2.02E+11,2017,11,12,Thailand,Southeast Asia,Yala,Khuan Banglang,6.159397,101.32261,0
2.02E+11,2017,4,7,Thailand,Southeast Asia,Pattani,Krado,6.718889,101.314722,0
2.02E+11,2017,6,15,Thailand,Southeast Asia,Pattani,Ban Pratu Chang,6.818894,101.309725,1
2.02E+11,2017,7,23,Thailand,Southeast Asia,Pattani,Yarang district,6.693399,101.309103,1
2.02E+11,2017,4,1,Thailand,Southeast Asia,Pattani,Sadawa,6.819402,101.309074,0
2.02E+11,2017,5,22,Thailand,Southeast Asia,Yala,Sateng Nok,6.547829,101.305809,0
2.02E+11,2017,4,7,Thailand,Southeast Asia,Pattani,Mo Mawi,6.669283,101.304392,0
2.02E+11,2017,2,16,Thailand,Southeast Asia,Yala,Pawang Nok,6.242799,101.297732,0
2.02E+11,2017,4,7,Thailand,Southeast Asia,Yala,Than To district,6.075992,101.297732,0
2.02E+11,2017,4,7,Thailand,Southeast Asia,Yala,Than To district,6.075992,101.297732,0
2.02E+11,2017,4,7,Thailand,Southeast Asia,Yala,Than To district,6.075992,101.297732,0
2.02E+11,2017,8,16,Thailand,Southeast Asia,Pattani,Yarang district,6.760278,101.293333,-99
2.02E+11,2017,4,19,Thailand,Southeast Asia,Pattani,Pitumudi,6.738062,101.285792,0
2.02E+11,2017,4,3,Thailand,Southeast Asia,Yala,Krong Pinang,6.426137,101.280708,0
2.02E+11,2017,4,3,Thailand,Southeast Asia,Yala,Krong Pinang,6.426255,101.280699,0
2.02E+11,2017,1,5,Thailand,Southeast Asia,Yala,Yala,6.545499,101.2799,1
2.02E+11,2017,3,4,Thailand,Southeast Asia,Yala,Yala,6.545499,101.2799,1
2.02E+11,2017,4,19,Thailand,Southeast Asia,Pattani,Baraho,6.83733,101.278145,0
2.02E+11,2017,3,16,Thailand,Southeast Asia,Pattani,Bindiyor,6.678238,101.269335,2
2.02E+11,2017,5,23,Thailand,Southeast Asia,Yala,Kuan Na Nga,6.337574,101.263716,2
2.02E+11,2017,4,7,Thailand,Southeast Asia,Yala,Bannang Sata,6.260623,101.253677,0
2.02E+11,2017,3,24,Thailand,Southeast Asia,Pattani,Kamiyo,6.869401,101.250519,1
2.02E+11,2017,4,7,Thailand,Southeast Asia,Pattani,Muang Pattani district,6.869401,101.250519,0
2.02E+11,2017,1,18,Thailand,Southeast Asia,Yala,Purong,6.438798,101.241127,0
2.02E+11,2017,4,7,Thailand,Southeast Asia,Yala,Bannang Sata district,6.254463,101.241044,0
2.02E+11,2017,5,24,Thailand,Southeast Asia,Yala,Bannang Sata district,6.254463,101.241044,0
2.02E+11,2017,5,24,Thailand,Southeast Asia,Yala,Bannang Sata,6.254463,101.241044,0
2.02E+11,2017,5,9,Thailand,Southeast Asia,Pattani,Muang Pattani,6.873954,101.234711,0
2.02E+11,2017,5,9,Thailand,Southeast Asia,Pattani,Muang Pattani,6.873954,101.234711,0
2.02E+11,2017,9,29,Thailand,Southeast Asia,Pattani,Pa Rai,6.674343,101.223758,0
2.02E+11,2017,5,27,Thailand,Southeast Asia,Yala,Bannang Sata district,6.23351,101.213969,0
2.02E+11,2017,7,10,Thailand,Southeast Asia,Pattani,Don Rak,6.837476,101.212712,1
2.02E+11,2017,12,17,Thailand,Southeast Asia,Yala,Ban Kasod,6.22563,101.206245,0
2.02E+11,2017,7,23,Thailand,Southeast Asia,Pattani,Ban Tha Dan,6.841667,101.199167,0
2.02E+11,2017,2,10,Thailand,Southeast Asia,Yala,Lidon,6.542778,101.199167,0
2.02E+11,2017,2,10,Thailand,Southeast Asia,Yala,Lidon,6.542778,101.199167,0
2.02E+11,2017,2,16,Thailand,Southeast Asia,Yala,Lidon,6.542778,101.199167,0
2.02E+11,2017,6,20,Thailand,Southeast Asia,Pattani,Pulo Puyo,6.779544,101.193062,1
2.02E+11,2017,7,23,Thailand,Southeast Asia,Pattani,Pulo Puyo,6.779544,101.193062,1
2.02E+11,2017,8,16,Thailand,Southeast Asia,Pattani,Pokok Nyor,6.844444,101.178611,0
2.02E+11,2017,9,10,Thailand,Southeast Asia,Phetchabun,Lom Kao district,16.831165,101.177975,1
2.02E+11,2017,12,25,Thailand,Southeast Asia,Yala,Baju,6.387376,101.162484,0
2.02E+11,2017,4,7,Thailand,Southeast Asia,Pattani,Nong Chik district,6.805503,101.153224,0
2.02E+11,2017,4,7,Thailand,Southeast Asia,Pattani,Nong Chik district,6.801624,101.151928,0
2.02E+11,2017,5,9,Thailand,Southeast Asia,Pattani,Nong Chik district,6.801624,101.151928,1
2.02E+11,2017,7,15,Thailand,Southeast Asia,Pattani,Bo Thong,6.786407,101.14827,0
2.02E+11,2017,9,14,Thailand,Southeast Asia,Yala,Padaeru,6.403581,101.147301,1
2.02E+11,2017,9,14,Thailand,Southeast Asia,Yala,Padaeru,6.403581,101.147301,1
2.02E+11,2017,4,7,Thailand,Southeast Asia,Pattani,Pa Bon,6.702698,101.100798,0
2.02E+11,2017,8,16,Thailand,Southeast Asia,Pattani,Ko Mokaeng,6.803337,101.07254,1
2.02E+11,2017,4,19,Thailand,Southeast Asia,Songkhla,Than Khiri,6.552129,101.037238,2
2.02E+11,2017,4,7,Thailand,Southeast Asia,Yala,Joh Bantang,5.779985,101.037238,0
2.02E+11,2017,6,18,Thailand,Southeast Asia,Yala,Kabang district,6.33141,101.022226,1
2.02E+11,2017,9,14,Thailand,Southeast Asia,Yala,Kabang district,6.39144,100.992603,0
2.02E+11,2017,2,28,Thailand,Southeast Asia,Songkhla,Tha Muang,6.742449,100.992005,2
2.02E+11,2017,4,19,Thailand,Southeast Asia,Songkhla,Juab,6.808818,100.982433,0
2.02E+11,2017,2,28,Thailand,Southeast Asia,Songkhla,Thepha district,6.790689,100.918146,0
2.02E+11,2017,4,7,Thailand,Southeast Asia,Songkhla,Ko Saba,6.899241,100.914563,0
2.02E+11,2017,4,7,Thailand,Southeast Asia,Songkhla,Saba Yoi district,6.503827,100.845147,0
2.02E+11,2017,4,7,Thailand,Southeast Asia,Songkhla,Saba Yoi district,6.503827,100.845147,0
2.02E+11,2017,4,7,Thailand,Southeast Asia,Songkhla,Chana district,6.919328,100.749112,0
2.02E+11,2017,4,19,Thailand,Southeast Asia,Songkhla,Chana,6.915784,100.737118,0
2.02E+11,2017,8,16,Thailand,Southeast Asia,Songkhla,Na Thawi,6.742322,100.692139,1
2.02E+11,2017,4,5,Thailand,Southeast Asia,Bangkok,Bangkok,13.785793,100.560852,0
2.02E+11,2017,5,15,Thailand,Southeast Asia,Bangkok,Bangkok,13.785793,100.560852,0
2.02E+11,2017,5,22,Thailand,Southeast Asia,Bangkok,Bangkok,13.785793,100.560852,0
2.02E+11,2017,5,30,Thailand,Southeast Asia,Bangkok,Bangkok,13.785793,100.560852,0
2.02E+11,2017,5,13,Thailand,Southeast Asia,Surat Thani,Ban Na San district,8.800278,99.363611,0
2.02E+11,2017,3,6,Myanmar,Southeast Asia,Shan,Laukkaing,23.693281,98.772316,30
2.02E+11,2017,3,6,Myanmar,Southeast Asia,Shan,Laukkaing,23.693281,98.772316,1
2.02E+11,2017,6,25,Indonesia,Southeast Asia,North Sumatra,Medan,3.59143,98.669477,2
2.02E+11,2017,12,25,Myanmar,Southeast Asia,Shan,Namkhaing,23.897145,98.040229,0
2.02E+11,2017,7,19,Myanmar,Southeast Asia,Shan,Hsenwi,23.301871,97.962011,0
2.02E+11,2017,12,23,Myanmar,Southeast Asia,Shan,Maiyu,23.953166,97.921531,1
2.02E+11,2017,12,25,Myanmar,Southeast Asia,Shan,Namphatkar,23.966667,97.9,0
2.02E+11,2017,1,4,Myanmar,Southeast Asia,Kayin,Hlaingbwe,17.474068,97.802248,0
2.02E+11,2017,3,12,Myanmar,Southeast Asia,Shan,Mong Tat,23.182778,97.397778,1
2.02E+11,2017,9,12,Myanmar,Southeast Asia,Shan,Hsipaw,22.618211,97.294659,0
2.02E+11,2017,5,26,Myanmar,Southeast Asia,Kayah,Loikaw,19.675914,97.209185,0
2.02E+11,2017,1,10,Myanmar,Southeast Asia,Shan,Zayan,22.96496,97.163257,0
2.02E+11,2017,8,5,Myanmar,Southeast Asia,Shan,Mantong,23.252354,97.121463,-99
2.02E+11,2017,1,12,Myanmar,Southeast Asia,Shan,Ho Chaung,23.078921,97.118679,2
2.02E+11,2017,3,6,Myanmar,Southeast Asia,Shan,Mongmaw,22.543668,97.033714,-99
2.02E+11,2017,1,10,Myanmar,Southeast Asia,Shan,Mongot,22.897778,97.007222,0
2.02E+11,2017,10,17,Indonesia,Southeast Asia,Aceh,Sangso,5.207409,96.383782,0
2.02E+11,2017,1,17,Myanmar,Southeast Asia,Kachin,Hpakan,25.617916,96.316669,1
2.02E+11,2017,12,13,Myanmar,Southeast Asia,Kachin,Hpakant,25.616667,96.316667,0
2.02E+11,2017,1,18,Myanmar,Southeast Asia,Kachin,Nantmaphyit,25.616217,96.296028,1
2.02E+11,2017,1,29,Myanmar,Southeast Asia,Yangon,Yangon,16.887781,96.149559,2
2.02E+11,2017,1,26,India,South Asia,Arunachal Pradesh,Chowkham,27.816206,96.018848,0
2.02E+11,2017,9,5,India,South Asia,Arunachal Pradesh,Jairampur,27.351796,96.016137,0
2.02E+11,2017,12,15,India,South Asia,Arunachal Pradesh,Khamdu,27.336705,96.00334,0
2.02E+11,2017,1,22,India,South Asia,Assam,Jagun,27.361859,95.95677,2
2.02E+11,2017,1,23,India,South Asia,Assam,Jagun,27.380363,95.897038,0
2.02E+11,2017,10,8,India,South Asia,Arunachal Pradesh,Bordumsa,27.515825,95.882316,0
2.02E+11,2017,12,8,India,South Asia,Assam,Konapather,27.517927,95.86197,0
2.02E+11,2017,9,28,India,South Asia,Assam,Ritu Kathalguri,27.471401,95.830873,0
2.02E+11,2017,12,11,India,South Asia,Assam,Simaluguri,27.642451,95.784484,2
2.02E+11,2017,5,4,India,South Asia,Assam,Milanpur,27.652853,95.671273,0
2.02E+11,2017,11,12,India,South Asia,Assam,Margherita,27.291143,95.669443,0
2.02E+11,2017,8,14,India,South Asia,Assam,Digboi,27.395147,95.630023,0
2.02E+11,2017,1,26,India,South Asia,Assam,Sadiya,27.860175,95.627395,0
2.02E+11,2017,1,26,India,South Asia,Assam,Tinsukia district,27.486149,95.356093,0
2.02E+11,2017,11,28,India,South Asia,Assam,Tikok,27.493239,95.34669,0
2.02E+11,2017,2,25,India,South Asia,Assam,Naharkatia,27.284551,95.331486,0
2.02E+11,2017,12,11,India,South Asia,Arunachal Pradesh,Tissa,26.85884,95.322512,1
2.02E+11,2017,1,31,India,South Asia,Arunachal Pradesh,Longding,26.880354,95.316761,1
2.02E+11,2017,10,10,India,South Asia,Arunachal Pradesh,Niausa,26.821159,95.293412,0
2.02E+11,2017,9,11,India,South Asia,Nagaland,Pangsha,26.26873,95.098303,0
2.02E+11,2017,5,25,India,South Asia,Assam,Dikom,27.449004,95.083712,1
2.02E+11,2017,5,27,India,South Asia,Assam,Teokghat,27.039935,95.075602,0
2.02E+11,2017,9,27,India,South Asia,Nagaland,Mon district,26.716667,95.033333,-99
2.02E+11,2017,1,26,India,South Asia,Assam,Charaideo district,27.029246,95.021303,0
2.02E+11,2017,1,26,India,South Asia,Assam,Dibrugarh,27.470605,94.910431,0
2.02E+11,2017,6,21,India,South Asia,Nagaland,Choknyu,26.735942,94.81989,0
2.02E+11,2017,1,26,India,South Asia,Assam,Bihubor,26.819337,94.782104,0
2.02E+11,2017,1,26,India,South Asia,Assam,Bihubor,26.819337,94.782104,0
2.02E+11,2017,3,5,India,South Asia,Assam,Dubluhabi,26.933,94.7481,0
2.02E+11,2017,8,25,India,South Asia,Manipur,New Pheijang,24.762145,94.588851,0
2.02E+11,2017,3,6,India,South Asia,Assam,Dhemaji district,27.4798,94.5511,0
2.02E+11,2017,12,2,India,South Asia,Manipur,Konkan,24.858187,94.513703,0
2.02E+11,2017,6,15,India,South Asia,Manipur,Kashung,24.559343,94.387216,1
2.02E+11,2017,6,14,India,South Asia,Manipur,Ukhrul district,25.097267,94.368346,1
2.02E+11,2017,3,7,India,South Asia,Manipur,Ashang Khullen,25.116667,94.366667,1
2.02E+11,2017,3,7,India,South Asia,Manipur,Aishi,25.116667,94.366667,0
2.02E+11,2017,6,15,India,South Asia,Manipur,Ukhrul,25.098829,94.361616,1
2.02E+11,2017,4,8,India,South Asia,Manipur,Ukhrul,25.097965,94.361596,0
2.02E+11,2017,3,26,Myanmar,Southeast Asia,Sagaing,Tamu,24.219884,94.310288,0
2.02E+11,2017,5,16,Myanmar,Southeast Asia,Sagaing,Tamu,24.219884,94.310288,0
2.02E+11,2017,8,12,India,South Asia,Manipur,Moreh,24.251247,94.301347,0
2.02E+11,2017,3,29,India,South Asia,Manipur,Moreh,24.251281,94.301304,0
2.02E+11,2017,5,22,India,South Asia,Manipur,Moreh,24.251281,94.301304,1
2.02E+11,2017,5,21,India,South Asia,Manipur,Moreh,24.250258,94.301203,0
2.02E+11,2017,5,20,India,South Asia,Manipur,Moreh,24.25075,94.301159,0
2.02E+11,2017,5,17,India,South Asia,Manipur,Moreh,24.251276,94.301134,0
2.02E+11,2017,6,30,India,South Asia,Manipur,Lambui,25.039031,94.28497,1
2.02E+11,2017,5,19,India,South Asia,Manipur,Kwatha Lamkhai,24.306812,94.265136,0
2.02E+11,2017,6,3,India,South Asia,Manipur,H Mongjang,24.303875,94.264573,0
2.02E+11,2017,5,8,India,South Asia,Manipur,Lokchao,24.325317,94.231707,2
2.02E+11,2017,3,11,India,South Asia,Manipur,Purul Akutpa,25.38575,94.226483,0
2.02E+11,2017,11,15,India,South Asia,Manipur,Chamol,24.317524,94.156905,2
2.02E+11,2017,1,6,India,South Asia,Manipur,Nongkham Gamnon,24.383792,94.148177,2
2.02E+11,2017,12,3,India,South Asia,Nagaland,Unknown,25.67,94.12,0
2.02E+11,2017,9,2,India,South Asia,Nagaland,Kohima,25.658596,94.10533,1
2.02E+11,2017,6,23,India,South Asia,Manipur,Langol,24.502242,94.075361,1
2.02E+11,2017,8,5,India,South Asia,Manipur,Nongpok Lourembam Mamang Leikai,24.640415,94.07408,0
2.02E+11,2017,8,29,India,South Asia,Manipur,Napet Palli,24.864541,94.064127,0
2.02E+11,2017,4,29,India,South Asia,Manipur,Nongren Chenjel,24.866586,94.049746,0
2.02E+11,2017,11,23,India,South Asia,Manipur,Khongjom,24.538628,94.041446,0
2.02E+11,2017,8,25,Myanmar,Southeast Asia,Rakhine,Hnarkaungto,19.782699,94.030771,3
2.02E+11,2017,3,8,India,South Asia,Manipur,Mantri Pantha,24.324429,94.009591,0
2.02E+11,2017,11,13,India,South Asia,Manipur,Mahamani,24.323812,94.003348,2
2.02E+11,2017,10,28,India,South Asia,Manipur,Thoubal district,24.644924,93.99929,0
2.02E+11,2017,5,19,Myanmar,Southeast Asia,Rakhine,Pazonchaung,19.810093,93.987843,1
2.02E+11,2017,6,25,India,South Asia,Manipur,Kangpokpi,25.150352,93.972056,0
2.02E+11,2017,4,18,India,South Asia,Manipur,Kangpokpi district,25.15192,93.969963,0
2.02E+11,2017,4,30,India,South Asia,Manipur,Kangpokpi,25.15192,93.969963,0
2.02E+11,2017,2,24,India,South Asia,Manipur,Thoubal district,24.543551,93.967437,0
2.02E+11,2017,3,7,India,South Asia,Manipur,Chandel,24.273576,93.965115,-99
2.02E+11,2017,6,24,Myanmar,Southeast Asia,Rakhine,Khuang Ta Ka,19.479993,93.955584,1
2.02E+11,2017,3,6,India,South Asia,Manipur,Gaitinkang,24.829728,93.943027,0
2.02E+11,2017,1,7,India,South Asia,Manipur,Imphal,24.798346,93.94043,0
2.02E+11,2017,1,26,India,South Asia,Manipur,Imphal,24.798346,93.94043,0
2.02E+11,2017,1,26,India,South Asia,Manipur,Imphal,24.798346,93.94043,0
2.02E+11,2017,2,4,India,South Asia,Manipur,Imphal,24.798346,93.94043,0
2.02E+11,2017,2,26,India,South Asia,Manipur,Imphal,24.798346,93.94043,0
2.02E+11,2017,3,1,India,South Asia,Manipur,Imphal,24.798346,93.94043,0
2.02E+11,2017,3,1,India,South Asia,Manipur,Imphal,24.798346,93.94043,0
2.02E+11,2017,3,2,India,South Asia,Manipur,Imphal,24.798346,93.94043,0
2.02E+11,2017,3,2,India,South Asia,Manipur,Imphal,24.798346,93.94043,0
2.02E+11,2017,3,2,India,South Asia,Manipur,Imphal,24.798346,93.94043,0
2.02E+11,2017,3,4,India,South Asia,Manipur,Imphal,24.798346,93.94043,0
2.02E+11,2017,3,8,India,South Asia,Manipur,Imphal,24.798346,93.94043,0
2.02E+11,2017,3,9,India,South Asia,Manipur,Imphal,24.798346,93.94043,0
2.02E+11,2017,3,25,India,South Asia,Manipur,Imphal,24.798346,93.94043,0
2.02E+11,2017,3,29,India,South Asia,Manipur,Imphal,24.798346,93.94043,0
2.02E+11,2017,5,18,India,South Asia,Manipur,Imphal,24.798346,93.94043,0
2.02E+11,2017,6,7,India,South Asia,Manipur,Imphal,24.798346,93.94043,0
2.02E+11,2017,6,13,India,South Asia,Manipur,Imphal,24.798346,93.94043,0
2.02E+11,2017,6,28,India,South Asia,Manipur,Imphal,24.798346,93.94043,0
2.02E+11,2017,7,17,India,South Asia,Manipur,Imphal,24.798346,93.94043,0
2.02E+11,2017,8,8,India,South Asia,Manipur,Imphal,24.798346,93.94043,0
2.02E+11,2017,8,13,India,South Asia,Manipur,Imphal,24.798346,93.94043,0
2.02E+11,2017,9,16,India,South Asia,Manipur,Imphal,24.798346,93.94043,0
2.02E+11,2017,9,25,India,South Asia,Manipur,Imphal,24.798346,93.94043,0
2.02E+11,2017,10,8,India,South Asia,Manipur,Imphal,24.798346,93.94043,0
2.02E+11,2017,10,5,India,South Asia,Manipur,Imphal,24.798346,93.94043,1
2.02E+11,2017,10,13,India,South Asia,Manipur,Imphal,24.798346,93.94043,0
2.02E+11,2017,10,24,India,South Asia,Manipur,Imphal,24.798346,93.94043,0
2.02E+11,2017,10,24,India,South Asia,Manipur,Imphal,24.798346,93.94043,0
2.02E+11,2017,11,8,India,South Asia,Manipur,Imphal,24.798346,93.94043,0
2.02E+11,2017,11,30,India,South Asia,Manipur,Imphal,24.798346,93.94043,0
2.02E+11,2017,12,4,India,South Asia,Manipur,Imphal,24.798346,93.94043,0
2.02E+11,2017,12,31,India,South Asia,Manipur,Imphal,24.798346,93.94043,0
2.02E+11,2017,2,28,India,South Asia,Manipur,Imphal,24.8074,93.9384,0
2.02E+11,2017,1,2,India,South Asia,Manipur,Unknown,24.663717,93.906269,3
2.02E+11,2017,2,10,India,South Asia,Manipur,Motbung,24.99846,93.904674,0
2.02E+11,2017,12,28,India,South Asia,Manipur,Motbung,24.999834,93.903397,0
2.02E+11,2017,6,17,Myanmar,Southeast Asia,Rakhine,Tet Oo Chaung,19.01593,93.891012,1
2.02E+11,2017,10,14,India,South Asia,Manipur,Sekmai,24.964929,93.887169,0
2.02E+11,2017,11,15,Myanmar,Southeast Asia,Rakhine,Vethali,19.971497,93.864578,0
2.02E+11,2017,3,2,India,South Asia,Manipur,Unknown,24.644176,93.852168,0
2.02E+11,2017,7,10,India,South Asia,Manipur,Nachou Kwak Siphai,24.605899,93.774547,1
2.02E+11,2017,2,1,India,South Asia,Manipur,Nachou,24.595961,93.774262,0
2.02E+11,2017,2,21,India,South Asia,Manipur,Thingkhongjang,24.803436,93.770008,0
2.02E+11,2017,5,15,India,South Asia,Nagaland,Dimapur,25.92,93.73,1
2.02E+11,2017,5,29,India,South Asia,Nagaland,Dimapur,25.908789,93.72472,1
2.02E+11,2017,5,13,India,South Asia,Nagaland,Dimapur,25.906057,93.714953,0
2.02E+11,2017,5,8,India,South Asia,Nagaland,Duncan Basti,25.912371,93.704608,0
2.02E+11,2017,1,12,India,South Asia,Manipur,Padanpung,24.854695,93.616715,1
2.02E+11,2017,2,21,India,South Asia,Manipur,Lubanglong Khunou,24.854695,93.616715,0
2.02E+11,2017,2,21,India,South Asia,Manipur,Nungkaolong,24.854695,93.616715,0
2.02E+11,2017,2,21,India,South Asia,Manipur,Noney district,24.854695,93.616715,0
2.02E+11,2017,1,24,India,South Asia,Manipur,Awanakhul,24.824882,93.562291,0
2.02E+11,2017,1,12,India,South Asia,Manipur,Lukhambi,24.862526,93.556877,1
2.02E+11,2017,4,29,India,South Asia,Manipur,Behiang,23.988674,93.55215,2
2.02E+11,2017,8,25,Myanmar,Southeast Asia,Rakhine,Kyeekyun,19.538531,93.506344,4
2.02E+11,2017,1,9,India,South Asia,Manipur,Tamenglong district,24.987934,93.495292,0
2.02E+11,2017,2,14,India,South Asia,Manipur,Khoupum,24.64955,93.479288,0
2.02E+11,2017,9,19,Myanmar,Southeast Asia,Rakhine,Sat Kyar,20.28933,93.370452,0
2.02E+11,2017,1,26,India,South Asia,Manipur,Saichang,24.431517,93.367485,2
2.02E+11,2017,2,27,India,South Asia,Manipur,Longpi,24.621392,93.338671,0
2.02E+11,2017,1,1,Myanmar,Southeast Asia,Rakhine,Minbya,20.366728,93.266651,0
2.02E+11,2017,1,20,India,South Asia,Assam,Pubsilputa,26.053709,93.164162,0
2.02E+11,2017,7,10,India,South Asia,Manipur,Chhatra Bekra,24.786438,93.15388,1
2.02E+11,2017,11,15,Myanmar,Southeast Asia,Rakhine,Pharpyaw,20.340291,93.068819,0
2.02E+11,2017,8,25,Myanmar,Southeast Asia,Rakhine,Natchaung,20.365771,93.044593,3
2.02E+11,2017,10,10,India,South Asia,Assam,Dima Hasao district,25.3478,93.017571,0
2.02E+11,2017,12,31,India,South Asia,Assam,Hungrum,25.180162,93.015788,0
2.02E+11,2017,1,2,Myanmar,Southeast Asia,Rakhine,Ponnagyun,20.3335,93.003812,0
2.02E+11,2017,8,25,Myanmar,Southeast Asia,Rakhine,Kyaukpyinseik,20.103163,93.001552,3
2.02E+11,2017,12,20,Myanmar,Southeast Asia,Rakhine,Sittwe,20.147602,92.895952,0
2.02E+11,2017,9,24,Myanmar,Southeast Asia,Rakhine,Chein Khar Li,20.493005,92.776092,0
2.02E+11,2017,8,25,Myanmar,Southeast Asia,Rakhine,Chainkharli,20.481461,92.757326,3
2.02E+11,2017,8,27,Myanmar,Southeast Asia,Rakhine,Kyaungtaung,20.574538,92.669403,0
2.02E+11,2017,8,25,Myanmar,Southeast Asia,Rakhine,Kotankauk,20.443653,92.636603,3
2.02E+11,2017,9,3,Myanmar,Southeast Asia,Rakhine,Thinbawgwe,20.532783,92.557204,0
2.02E+11,2017,9,22,Myanmar,Southeast Asia,Rakhine,Mee Kyaung Zay,20.91072,92.556094,0
2.02E+11,2017,8,25,Myanmar,Southeast Asia,Rakhine,Kyauk Pandu,20.543873,92.543902,4
2.02E+11,2017,5,28,Myanmar,Southeast Asia,Rakhine,Buthidaung,20.870768,92.530279,1
2.02E+11,2017,8,25,Myanmar,Southeast Asia,Rakhine,Ye Baw Kya,20.755581,92.528722,45
2.02E+11,2017,7,4,Myanmar,Southeast Asia,Rakhine,Maung Hna Ma,20.86917,92.527425,1
2.02E+11,2017,7,9,Myanmar,Southeast Asia,Rakhine,Tinmay,20.86929,92.52728,2
2.02E+11,2017,7,22,Myanmar,Southeast Asia,Rakhine,Buthidaung,20.869325,92.52725,1
2.02E+11,2017,2,17,Myanmar,Southeast Asia,Rakhine,Buthidaung district,20.86951,92.527221,0
2.02E+11,2017,10,4,Myanmar,Southeast Asia,Rakhine,Migyaung Zay,20.924456,92.518265,0
2.02E+11,2017,8,25,Myanmar,Southeast Asia,Rakhine,Taung Bazar,21.008816,92.503263,3
2.02E+11,2017,8,25,Myanmar,Southeast Asia,Rakhine,Taung Bazar,21.008816,92.503263,3
2.02E+11,2017,8,25,Myanmar,Southeast Asia,Rakhine,Myinlut,20.627733,92.502669,3
2.02E+11,2017,8,26,Myanmar,Southeast Asia,Rakhine,Myinlut,20.627733,92.502669,0
2.02E+11,2017,8,25,Myanmar,Southeast Asia,Rakhine,Udaung,20.669289,92.47105,3
2.02E+11,2017,3,13,India,South Asia,Mizoram,Unknown,24.138431,92.461212,0
2.02E+11,2017,8,25,Myanmar,Southeast Asia,Rakhine,Alethankyaw,20.681629,92.444156,3
2.02E+11,2017,9,3,Myanmar,Southeast Asia,Rakhine,Dingar,20.815683,92.402698,0
2.02E+11,2017,9,3,Myanmar,Southeast Asia,Rakhine,Sawkeenama,20.815683,92.402698,0
2.02E+11,2017,9,3,Myanmar,Southeast Asia,Rakhine,Hontarya,20.815683,92.402698,0
2.02E+11,2017,9,14,Myanmar,Southeast Asia,Rakhine,Mee Taik Chaungwa,20.81531,92.399376,0
2.02E+11,2017,9,14,Myanmar,Southeast Asia,Rakhine,Nant Thar Taung Chaungwa,20.81531,92.399376,0
2.02E+11,2017,9,3,Myanmar,Southeast Asia,Rakhine,Ountaw,20.816945,92.385774,0
2.02E+11,2017,9,3,Myanmar,Southeast Asia,Rakhine,Aukpyuma,20.844635,92.38297,0
2.02E+11,2017,8,25,Myanmar,Southeast Asia,Rakhine,Maungdaw,20.823738,92.370789,3
2.02E+11,2017,8,25,Myanmar,Southeast Asia,Rakhine,Maungdaw,20.823738,92.370789,1
2.02E+11,2017,8,25,Myanmar,Southeast Asia,Rakhine,Maungdaw,20.823738,92.370789,1
2.02E+11,2017,8,25,Myanmar,Southeast Asia,Rakhine,Maungdaw,20.823738,92.370789,1
2.02E+11,2017,8,25,Myanmar,Southeast Asia,Rakhine,Maungdaw,20.823738,92.370789,1
2.02E+11,2017,8,26,Myanmar,Southeast Asia,Rakhine,Maungdaw,20.823738,92.370789,0
2.02E+11,2017,8,26,Myanmar,Southeast Asia,Rakhine,Maungdaw,20.823738,92.370789,1
2.02E+11,2017,8,26,Myanmar,Southeast Asia,Rakhine,Maungdaw,20.823738,92.370789,1
2.02E+11,2017,8,26,Myanmar,Southeast Asia,Rakhine,Maungdaw,20.823738,92.370789,1
2.02E+11,2017,8,26,Myanmar,Southeast Asia,Rakhine,Maungdaw,20.823738,92.370789,0
2.02E+11,2017,8,28,Myanmar,Southeast Asia,Rakhine,Maungdaw,20.823738,92.370789,0
2.02E+11,2017,7,15,Myanmar,Southeast Asia,Rakhine,Pyaung Pike,20.824382,92.369375,3
2.02E+11,2017,1,7,Myanmar,Southeast Asia,Rakhine,Norula,20.824107,92.369022,1
2.02E+11,2017,1,20,Myanmar,Southeast Asia,Rakhine,Pdakar,20.824107,92.369022,3
2.02E+11,2017,4,17,Myanmar,Southeast Asia,Rakhine,Hpweyar,20.824107,92.369022,1
2.02E+11,2017,6,24,Myanmar,Southeast Asia,Rakhine,Tarein,20.823197,92.368975,2
2.02E+11,2017,8,3,Myanmar,Southeast Asia,Rakhine,Kaing Gyi,20.821928,92.367502,7
2.02E+11,2017,6,25,Myanmar,Southeast Asia,Rakhine,Myo Thu Gyi,20.824339,92.367388,1
2.02E+11,2017,8,25,Myanmar,Southeast Asia,Rakhine,Maungdaw district,20.822014,92.367346,0
2.02E+11,2017,8,27,Myanmar,Southeast Asia,Rakhine,Minkhamoung,20.822014,92.367346,0
2.02E+11,2017,8,25,Myanmar,Southeast Asia,Rakhine,Padinkaung,20.821552,92.367318,3
2.02E+11,2017,8,25,Myanmar,Southeast Asia,Rakhine,Panyaungky,20.821552,92.367318,3
2.02E+11,2017,8,25,Myanmar,Southeast Asia,Rakhine,Shweyinaye,20.821552,92.367318,3
2.02E+11,2017,8,25,Myanmar,Southeast Asia,Rakhine,Phaungtawpyin,20.821552,92.367318,3
2.02E+11,2017,8,25,Myanmar,Southeast Asia,Rakhine,Tamantha,20.821552,92.367318,3
2.02E+11,2017,8,27,Myanmar,Southeast Asia,Rakhine,Pyathat,20.821552,92.367318,0
2.02E+11,2017,8,27,Myanmar,Southeast Asia,Rakhine,Chopyin,20.821831,92.36731,0
2.02E+11,2017,12,4,India,South Asia,Meghalaya,Jaintia Hills district,25.359,92.367,0
2.02E+11,2017,8,26,Myanmar,Southeast Asia,Rakhine,Myo Thu Gyi,20.821942,92.366995,6
2.02E+11,2017,6,29,Myanmar,Southeast Asia,Rakhine,Unknown,20.821946,92.366987,1
2.02E+11,2017,8,25,Myanmar,Southeast Asia,Rakhine,Thinbawgwe,20.822004,92.366935,4
2.02E+11,2017,8,25,Myanmar,Southeast Asia,Rakhine,Thihokyun,20.822004,92.366935,3
2.02E+11,2017,8,25,Myanmar,Southeast Asia,Rakhine,Tharaykonboung,20.822004,92.366935,3
2.02E+11,2017,8,27,Myanmar,Southeast Asia,Rakhine,Thayet-oat,20.822004,92.366935,0
2.02E+11,2017,8,25,Myanmar,Southeast Asia,Rakhine,Launddon,20.822026,92.366929,3
